{
 "type": "FeatureCollection",
 "generatedAt": "2026-07-20T09:44:23Z",
 "source": "IPR Praha - UAP (kulturni zarizeni, Geoportal Praha)",
 "features": [
  {
   "type": "Feature",
   "geometry": {
    "type": "Point",
    "coordinates": [
     14.422517,
     50.090746
    ]
   },
   "properties": {
    "id": "ipr-kultzar-150",
    "name": "Speculum Alchemiae - Zrcadlo alchymie",
    "subtype": "muzeum",
    "typ_uap": "05_07",
    "cooling": "ac",
    "tier": "A",
    "address": "Haštalská 795/1",
    "web": "www.alchemiae.cz",
    "bezbar": false,
    "source": "IPR Praha – ÚAP"
   }
  },
  {
   "type": "Feature",
   "geometry": {
    "type": "Point",
    "coordinates": [
     14.428509,
     50.069199
    ]
   },
   "properties": {
    "id": "ipr-kultzar-140",
    "name": "Muzeum Policie České Republiky",
    "subtype": "muzeum",
    "typ_uap": "05_07",
    "cooling": "ac",
    "tier": "A",
    "address": "Ke Karlovu 453/1",
    "web": "www.muzeumpolicie.cz",
    "bezbar": false,
    "source": "IPR Praha – ÚAP"
   }
  },
  {
   "type": "Feature",
   "geometry": {
    "type": "Point",
    "coordinates": [
     14.430362,
     50.08816
    ]
   },
   "properties": {
    "id": "ipr-kultzar-248",
    "name": "Muzeum komunismu",
    "subtype": "muzeum",
    "typ_uap": "05_07",
    "cooling": "ac",
    "tier": "A",
    "address": "V celnici 1031/4",
    "web": "www.muzeumkomunismu.cz",
    "bezbar": false,
    "source": "IPR Praha – ÚAP"
   }
  },
  {
   "type": "Feature",
   "geometry": {
    "type": "Point",
    "coordinates": [
     14.419419,
     50.082593
    ]
   },
   "properties": {
    "id": "ipr-kultzar-137",
    "name": "Muzeum LEGA",
    "subtype": "muzeum",
    "typ_uap": "05_07",
    "cooling": "ac",
    "tier": "A",
    "address": "Národní 362/31",
    "web": "www.muzeumlega.cz/muzeum-praha",
    "bezbar": false,
    "source": "IPR Praha – ÚAP"
   }
  },
  {
   "type": "Feature",
   "geometry": {
    "type": "Point",
    "coordinates": [
     14.440814,
     50.075206
    ]
   },
   "properties": {
    "id": "ipr-kultzar-614",
    "name": "Klub Madragora Praha",
    "subtype": "kulturní dům",
    "typ_uap": "05_03",
    "cooling": "ac",
    "tier": "B",
    "address": "Korunní 732/16",
    "web": "https://www.mandragorapraha.cz/",
    "bezbar": false,
    "source": "IPR Praha – ÚAP"
   }
  },
  {
   "type": "Feature",
   "geometry": {
    "type": "Point",
    "coordinates": [
     14.436974,
     50.076064
    ]
   },
   "properties": {
    "id": "ipr-kultzar-184",
    "name": "Divadlo Na Vinohradech",
    "subtype": "divadlo",
    "typ_uap": "05_01",
    "cooling": "ac",
    "tier": "A",
    "address": "náměstí Míru 1450/7",
    "web": "www.divadlonavinohradech.com/",
    "bezbar": false,
    "source": "IPR Praha – ÚAP"
   }
  },
  {
   "type": "Feature",
   "geometry": {
    "type": "Point",
    "coordinates": [
     14.435601,
     50.079033
    ]
   },
   "properties": {
    "id": "ipr-kultzar-87",
    "name": "Nová galerie",
    "subtype": "galerie",
    "typ_uap": "05_08",
    "cooling": "ac",
    "tier": "A",
    "address": "Balbínova 409/26",
    "web": "www.novagalerie.cz",
    "bezbar": false,
    "source": "IPR Praha – ÚAP"
   }
  },
  {
   "type": "Feature",
   "geometry": {
    "type": "Point",
    "coordinates": [
     14.441694,
     50.076903
    ]
   },
   "properties": {
    "id": "ipr-kultzar-477",
    "name": "ROYAL - Theater, Cinema, Café",
    "subtype": "multifunkční sál",
    "typ_uap": "05_05",
    "cooling": "ac",
    "tier": "A",
    "address": "Vinohradská 2165/48",
    "web": "www.leroyal.cz/",
    "bezbar": false,
    "source": "IPR Praha – ÚAP"
   }
  },
  {
   "type": "Feature",
   "geometry": {
    "type": "Point",
    "coordinates": [
     14.408389,
     50.077357
    ]
   },
   "properties": {
    "id": "ipr-kultzar-273",
    "name": "Jazz Dock",
    "subtype": "kulturní dům",
    "typ_uap": "05_03",
    "cooling": "ac",
    "tier": "B",
    "address": "Janáčkovo nábřeží 3249/2",
    "web": "www.jazzdock.cz/cs/",
    "bezbar": false,
    "source": "IPR Praha – ÚAP"
   }
  },
  {
   "type": "Feature",
   "geometry": {
    "type": "Point",
    "coordinates": [
     14.461297,
     50.078295
    ]
   },
   "properties": {
    "id": "ipr-kultzar-394",
    "name": "Cinema City IMAX Flora",
    "subtype": "kino",
    "typ_uap": "05_02",
    "cooling": "ac",
    "tier": "A",
    "address": "Vinohradská 2828/151",
    "web": "www.cinemacity.cz/imax",
    "bezbar": true,
    "source": "IPR Praha – ÚAP"
   }
  },
  {
   "type": "Feature",
   "geometry": {
    "type": "Point",
    "coordinates": [
     14.434814,
     50.047623
    ]
   },
   "properties": {
    "id": "ipr-kultzar-51",
    "name": "Café Na půl cesty",
    "subtype": "kulturní dům",
    "typ_uap": "05_03",
    "cooling": "ac",
    "tier": "B",
    "address": "Pujmanové 1219/8",
    "web": "www.greendoors.cz",
    "bezbar": true,
    "source": "IPR Praha – ÚAP"
   }
  },
  {
   "type": "Feature",
   "geometry": {
    "type": "Point",
    "coordinates": [
     14.418151,
     50.082234
    ]
   },
   "properties": {
    "id": "ipr-kultzar-272",
    "name": "Image Black Light Theatre",
    "subtype": "divadlo",
    "typ_uap": "05_01",
    "cooling": "ac",
    "tier": "A",
    "address": "Národní 961/25",
    "web": "www.imagetheatre.cz/; www.divadlometro.cz/cz/",
    "bezbar": true,
    "source": "IPR Praha – ÚAP"
   }
  },
  {
   "type": "Feature",
   "geometry": {
    "type": "Point",
    "coordinates": [
     14.426123,
     50.079836
    ]
   },
   "properties": {
    "id": "ipr-kultzar-70",
    "name": "Galerie Ferdinanda Baumanna",
    "subtype": "galerie",
    "typ_uap": "05_08",
    "cooling": "ac",
    "tier": "A",
    "address": "Štěpánská 622/36",
    "web": "www.fbgallery.cz",
    "bezbar": true,
    "source": "IPR Praha – ÚAP"
   }
  },
  {
   "type": "Feature",
   "geometry": {
    "type": "Point",
    "coordinates": [
     14.429591,
     50.081369
    ]
   },
   "properties": {
    "id": "ipr-kultzar-190",
    "name": "Divadlo Radka Brzobohatého",
    "subtype": "divadlo",
    "typ_uap": "05_01",
    "cooling": "ac",
    "tier": "A",
    "address": "Opletalova 919/5",
    "web": "www.divadlorb.cz",
    "bezbar": false,
    "source": "IPR Praha – ÚAP"
   }
  },
  {
   "type": "Feature",
   "geometry": {
    "type": "Point",
    "coordinates": [
     14.431079,
     50.10021
    ]
   },
   "properties": {
    "id": "ipr-kultzar-350",
    "name": "Galerie Petr Novotný",
    "subtype": "galerie",
    "typ_uap": "05_08",
    "cooling": "ac",
    "tier": "A",
    "address": "Heřmanova 743/35",
    "web": "www.galeriepn.cz",
    "bezbar": false,
    "source": "IPR Praha – ÚAP"
   }
  },
  {
   "type": "Feature",
   "geometry": {
    "type": "Point",
    "coordinates": [
     14.424808,
     50.088078
    ]
   },
   "properties": {
    "id": "ipr-kultzar-278",
    "name": "Chapeau Rouge",
    "subtype": "kulturní dům",
    "typ_uap": "05_03",
    "cooling": "ac",
    "tier": "B",
    "address": "Jakubská 647/2",
    "web": "www.chapeaurouge.cz",
    "bezbar": false,
    "source": "IPR Praha – ÚAP"
   }
  },
  {
   "type": "Feature",
   "geometry": {
    "type": "Point",
    "coordinates": [
     14.494465,
     50.117307
    ]
   },
   "properties": {
    "id": "ipr-kultzar-670",
    "name": "Plzeňka u Brabců",
    "subtype": "galerie",
    "typ_uap": "05_08",
    "cooling": "ac",
    "tier": "A",
    "address": "Na Proseku 2/11",
    "web": "www.plzenkaubrabcu.cz",
    "bezbar": false,
    "source": "IPR Praha – ÚAP"
   }
  },
  {
   "type": "Feature",
   "geometry": {
    "type": "Point",
    "coordinates": [
     14.468165,
     50.095603
    ]
   },
   "properties": {
    "id": "ipr-kultzar-176",
    "name": "Divadlo Kámen",
    "subtype": "divadlo",
    "typ_uap": "05_01",
    "cooling": "ac",
    "tier": "A",
    "address": "Nekvasilova 625/2",
    "web": "www.divadlokamen.cz",
    "bezbar": true,
    "source": "IPR Praha – ÚAP"
   }
  },
  {
   "type": "Feature",
   "geometry": {
    "type": "Point",
    "coordinates": [
     14.407636,
     50.098996
    ]
   },
   "properties": {
    "id": "ipr-kultzar-309",
    "name": "Galerie Villa Pellé",
    "subtype": "galerie",
    "typ_uap": "05_08",
    "cooling": "ac",
    "tier": "A",
    "address": "Pelléova 91/10",
    "web": "villapelle.cz",
    "bezbar": false,
    "source": "IPR Praha – ÚAP"
   }
  },
  {
   "type": "Feature",
   "geometry": {
    "type": "Point",
    "coordinates": [
     14.426407,
     50.080891
    ]
   },
   "properties": {
    "id": "ipr-kultzar-292",
    "name": "Velký sál Lucerna",
    "subtype": "multifunkční sál",
    "typ_uap": "05_05",
    "cooling": "ac",
    "tier": "A",
    "address": "Štěpánská 704/61",
    "web": "www.lucpra.com",
    "bezbar": false,
    "source": "IPR Praha – ÚAP"
   }
  },
  {
   "type": "Feature",
   "geometry": {
    "type": "Point",
    "coordinates": [
     14.413253,
     50.082043
    ]
   },
   "properties": {
    "id": "ipr-kultzar-509",
    "name": "SmetanaQ",
    "subtype": "galerie",
    "typ_uap": "05_08",
    "cooling": "ac",
    "tier": "A",
    "address": "Smetanovo nábřeží 334/4",
    "web": "smetanaq.cz",
    "bezbar": false,
    "source": "IPR Praha – ÚAP"
   }
  },
  {
   "type": "Feature",
   "geometry": {
    "type": "Point",
    "coordinates": [
     14.415987,
     50.094679
    ]
   },
   "properties": {
    "id": "ipr-kultzar-663",
    "name": "Containall Stalin",
    "subtype": "kulturní dům",
    "typ_uap": "05_03",
    "cooling": "ac",
    "tier": "B",
    "address": null,
    "web": "www.containall.cz",
    "bezbar": false,
    "source": "IPR Praha – ÚAP"
   }
  },
  {
   "type": "Feature",
   "geometry": {
    "type": "Point",
    "coordinates": [
     14.443174,
     50.10818
    ]
   },
   "properties": {
    "id": "ipr-kultzar-271",
    "name": "Cross Attic",
    "subtype": "divadlo",
    "typ_uap": "05_01",
    "cooling": "ac",
    "tier": "A",
    "address": "Plynární 1096/23",
    "web": "https://www.crossattic.com",
    "bezbar": false,
    "source": "IPR Praha – ÚAP"
   }
  },
  {
   "type": "Feature",
   "geometry": {
    "type": "Point",
    "coordinates": [
     14.415196,
     50.081573
    ]
   },
   "properties": {
    "id": "ipr-kultzar-22",
    "name": "Divadlo Viola",
    "subtype": "divadlo",
    "typ_uap": "05_01",
    "cooling": "ac",
    "tier": "A",
    "address": "Národní 1011/7",
    "web": "www.divadloviola.cz",
    "bezbar": true,
    "source": "IPR Praha – ÚAP"
   }
  },
  {
   "type": "Feature",
   "geometry": {
    "type": "Point",
    "coordinates": [
     14.415209,
     50.090172
    ]
   },
   "properties": {
    "id": "ipr-kultzar-156",
    "name": "Galerie rudolfinum",
    "subtype": "galerie",
    "typ_uap": "05_08",
    "cooling": "ac",
    "tier": "A",
    "address": "Alšovo nábřeží 79/12",
    "web": "www.galerierudolfinum.cz/cs/",
    "bezbar": false,
    "source": "IPR Praha – ÚAP"
   }
  },
  {
   "type": "Feature",
   "geometry": {
    "type": "Point",
    "coordinates": [
     14.415331,
     50.085016
    ]
   },
   "properties": {
    "id": "ipr-kultzar-475",
    "name": "Pražská křižovatka - kostel sv. Anny",
    "subtype": "multifunkční sál",
    "typ_uap": "05_05",
    "cooling": "ac",
    "tier": "A",
    "address": "Zlatá 211/1",
    "web": "www.prazskakrizovatka.cz/",
    "bezbar": false,
    "source": "IPR Praha – ÚAP"
   }
  },
  {
   "type": "Feature",
   "geometry": {
    "type": "Point",
    "coordinates": [
     14.449558,
     50.087154
    ]
   },
   "properties": {
    "id": "ipr-kultzar-638",
    "name": "ROH družstevní kavárna",
    "subtype": "literární kavárna",
    "typ_uap": "05_10",
    "cooling": "ac",
    "tier": "B",
    "address": "U božích bojovníků 606/3",
    "web": "facebook.com/ROHkavarna",
    "bezbar": false,
    "source": "IPR Praha – ÚAP"
   }
  },
  {
   "type": "Feature",
   "geometry": {
    "type": "Point",
    "coordinates": [
     14.393987,
     50.080155
    ]
   },
   "properties": {
    "id": "ipr-kultzar-282",
    "name": "Klub 007 Strahov",
    "subtype": "kulturní dům",
    "typ_uap": "05_03",
    "cooling": "ac",
    "tier": "B",
    "address": "Chaloupeckého 1915/7",
    "web": "www.klub007strahov.cz",
    "bezbar": false,
    "source": "IPR Praha – ÚAP"
   }
  },
  {
   "type": "Feature",
   "geometry": {
    "type": "Point",
    "coordinates": [
     14.414915,
     50.093095
    ]
   },
   "properties": {
    "id": "ipr-kultzar-390",
    "name": "Loop Jazz Club",
    "subtype": "kulturní dům",
    "typ_uap": "05_03",
    "cooling": "ac",
    "tier": "B",
    "address": "U Plovárny 337/1",
    "web": "www.loopjazzclub.cz/",
    "bezbar": false,
    "source": "IPR Praha – ÚAP"
   }
  },
  {
   "type": "Feature",
   "geometry": {
    "type": "Point",
    "coordinates": [
     14.488516,
     50.106957
    ]
   },
   "properties": {
    "id": "ipr-kultzar-173",
    "name": "Divadlo Gong",
    "subtype": "divadlo",
    "typ_uap": "05_01",
    "cooling": "ac",
    "tier": "A",
    "address": "Sokolovská 969/191",
    "web": "www.divadlogong.cz/",
    "bezbar": true,
    "source": "IPR Praha – ÚAP"
   }
  },
  {
   "type": "Feature",
   "geometry": {
    "type": "Point",
    "coordinates": [
     14.39639,
     49.975656
    ]
   },
   "properties": {
    "id": "ipr-kultzar-269",
    "name": "Divadlo Jana Kašky",
    "subtype": "divadlo",
    "typ_uap": "05_01",
    "cooling": "ac",
    "tier": "A",
    "address": "U Malé řeky 1319",
    "web": "www.divadlozbraslav.cz",
    "bezbar": false,
    "source": "IPR Praha – ÚAP"
   }
  },
  {
   "type": "Feature",
   "geometry": {
    "type": "Point",
    "coordinates": [
     14.62171,
     50.114917
    ]
   },
   "properties": {
    "id": "ipr-kultzar-261",
    "name": "Kulturní středisko Domeček",
    "subtype": "divadlo",
    "typ_uap": "05_01",
    "cooling": "ac",
    "tier": "A",
    "address": "Votuzská 322/12",
    "web": "https://www.divadlopocernice.cz/kurzy-v-ks-domecek",
    "bezbar": true,
    "source": "IPR Praha – ÚAP"
   }
  },
  {
   "type": "Feature",
   "geometry": {
    "type": "Point",
    "coordinates": [
     14.399208,
     50.101133
    ]
   },
   "properties": {
    "id": "ipr-kultzar-502",
    "name": "Galerie Skleňák",
    "subtype": "galerie",
    "typ_uap": "05_08",
    "cooling": "ac",
    "tier": "A",
    "address": "Náměstí Svobody 728/1",
    "web": "www.praha6.cz",
    "bezbar": false,
    "source": "IPR Praha – ÚAP"
   }
  },
  {
   "type": "Feature",
   "geometry": {
    "type": "Point",
    "coordinates": [
     14.435576,
     50.067169
    ]
   },
   "properties": {
    "id": "ipr-kultzar-42",
    "name": "Etc. Galerie",
    "subtype": "galerie",
    "typ_uap": "05_08",
    "cooling": "ac",
    "tier": "A",
    "address": "Sarajevská 68/16",
    "web": "www.etcgalerie.cz",
    "bezbar": true,
    "source": "IPR Praha – ÚAP"
   }
  },
  {
   "type": "Feature",
   "geometry": {
    "type": "Point",
    "coordinates": [
     14.442743,
     50.087131
    ]
   },
   "properties": {
    "id": "ipr-kultzar-189",
    "name": "Ponec - divadlo pro tanec",
    "subtype": "divadlo",
    "typ_uap": "05_01",
    "cooling": "ac",
    "tier": "A",
    "address": "Husitská 899/24a",
    "web": "www.divadloponec.cz",
    "bezbar": true,
    "source": "IPR Praha – ÚAP"
   }
  },
  {
   "type": "Feature",
   "geometry": {
    "type": "Point",
    "coordinates": [
     14.41574,
     50.090495
    ]
   },
   "properties": {
    "id": "ipr-kultzar-161",
    "name": "Divadlo Na Rejdišti",
    "subtype": "divadlo",
    "typ_uap": "05_01",
    "cooling": "ac",
    "tier": "A",
    "address": "Na Rejdišti 77/1",
    "web": "www.divadlokonzervatore.cz/",
    "bezbar": true,
    "source": "IPR Praha – ÚAP"
   }
  },
  {
   "type": "Feature",
   "geometry": {
    "type": "Point",
    "coordinates": [
     14.414301,
     50.07884
    ]
   },
   "properties": {
    "id": "ipr-kultzar-117",
    "name": "Galerie Moderna",
    "subtype": "galerie",
    "typ_uap": "05_08",
    "cooling": "ac",
    "tier": "A",
    "address": "Masarykovo nábřeží 233/24",
    "web": "www.galeriemoderna.cz",
    "bezbar": false,
    "source": "IPR Praha – ÚAP"
   }
  },
  {
   "type": "Feature",
   "geometry": {
    "type": "Point",
    "coordinates": [
     14.398597,
     50.088035
    ]
   },
   "properties": {
    "id": "ipr-kultzar-257",
    "name": "Divadlo Apropo",
    "subtype": "divadlo",
    "typ_uap": "05_01",
    "cooling": "ac",
    "tier": "A",
    "address": "Jánský vršek 312/8",
    "web": "www.muzeumpovesti.cz/cz/clanek/997/",
    "bezbar": true,
    "source": "IPR Praha – ÚAP"
   }
  },
  {
   "type": "Feature",
   "geometry": {
    "type": "Point",
    "coordinates": [
     14.417239,
     50.100894
    ]
   },
   "properties": {
    "id": "ipr-kultzar-125",
    "name": "Galerie Scarabeus a Muzeum kávy",
    "subtype": "galerie",
    "typ_uap": "05_08",
    "cooling": "ac",
    "tier": "A",
    "address": "Jana Zajíce 975/7",
    "web": "www.galeriescarabeus.cz; www.muzeumkavy.cz",
    "bezbar": false,
    "source": "IPR Praha – ÚAP"
   }
  },
  {
   "type": "Feature",
   "geometry": {
    "type": "Point",
    "coordinates": [
     14.424052,
     50.090494
    ]
   },
   "properties": {
    "id": "ipr-kultzar-113",
    "name": "Galerie Lapidarium",
    "subtype": "muzeum",
    "typ_uap": "05_07",
    "cooling": "ac",
    "tier": "A",
    "address": "Rámová 735/6",
    "web": "www.barok.cz",
    "bezbar": false,
    "source": "IPR Praha – ÚAP"
   }
  },
  {
   "type": "Feature",
   "geometry": {
    "type": "Point",
    "coordinates": [
     14.447031,
     50.106777
    ]
   },
   "properties": {
    "id": "ipr-kultzar-40",
    "name": "DOX - Centrum současného umění",
    "subtype": "galerie",
    "typ_uap": "05_08",
    "cooling": "ac",
    "tier": "A",
    "address": "Poupětova 793/1",
    "web": "www.dox.cz",
    "bezbar": true,
    "source": "IPR Praha – ÚAP"
   }
  },
  {
   "type": "Feature",
   "geometry": {
    "type": "Point",
    "coordinates": [
     14.431652,
     50.086072
    ]
   },
   "properties": {
    "id": "ipr-kultzar-43",
    "name": "European Arts - galerie a aukční síň",
    "subtype": "galerie",
    "typ_uap": "05_08",
    "cooling": "ac",
    "tier": "A",
    "address": "Senovážné náměstí 992/8",
    "web": "www.europeanarts.cz",
    "bezbar": true,
    "source": "IPR Praha – ÚAP"
   }
  },
  {
   "type": "Feature",
   "geometry": {
    "type": "Point",
    "coordinates": [
     14.448862,
     50.082949
    ]
   },
   "properties": {
    "id": "ipr-kultzar-632",
    "name": "OKOLO Gallery",
    "subtype": "galerie",
    "typ_uap": "05_08",
    "cooling": "ac",
    "tier": "A",
    "address": "Bořivojova 832/77",
    "web": "http://www.okologallery.cz/",
    "bezbar": false,
    "source": "IPR Praha – ÚAP"
   }
  },
  {
   "type": "Feature",
   "geometry": {
    "type": "Point",
    "coordinates": [
     14.448234,
     50.105722
    ]
   },
   "properties": {
    "id": "ipr-kultzar-658",
    "name": "Bold Gallery",
    "subtype": "muzeum",
    "typ_uap": "05_07",
    "cooling": "ac",
    "tier": "A",
    "address": "U Měšťanského pivovaru 1507/6",
    "web": "www.boldgallery.art",
    "bezbar": false,
    "source": "IPR Praha – ÚAP"
   }
  },
  {
   "type": "Feature",
   "geometry": {
    "type": "Point",
    "coordinates": [
     14.420074,
     50.084831
    ]
   },
   "properties": {
    "id": "ipr-kultzar-120",
    "name": "Galerie Ostrov",
    "subtype": "galerie",
    "typ_uap": "05_08",
    "cooling": "ac",
    "tier": "A",
    "address": "Michalská 510/8",
    "web": "www.galerie-ostrov.cz",
    "bezbar": true,
    "source": "IPR Praha – ÚAP"
   }
  },
  {
   "type": "Feature",
   "geometry": {
    "type": "Point",
    "coordinates": [
     14.380051,
     50.085684
    ]
   },
   "properties": {
    "id": "ipr-kultzar-440",
    "name": "Kino Dlabačov",
    "subtype": "kino",
    "typ_uap": "05_02",
    "cooling": "ac",
    "tier": "A",
    "address": "Bělohorská 125/24",
    "web": "www.mcdlabacov.cz",
    "bezbar": false,
    "source": "IPR Praha – ÚAP"
   }
  },
  {
   "type": "Feature",
   "geometry": {
    "type": "Point",
    "coordinates": [
     14.360667,
     50.081883
    ]
   },
   "properties": {
    "id": "ipr-kultzar-349",
    "name": "Galerie Kuzebauch",
    "subtype": "galerie",
    "typ_uap": "05_08",
    "cooling": "ac",
    "tier": "A",
    "address": "Říčanova 753/19",
    "web": "www.galeriekuzebauch.com",
    "bezbar": false,
    "source": "IPR Praha – ÚAP"
   }
  },
  {
   "type": "Feature",
   "geometry": {
    "type": "Point",
    "coordinates": [
     14.42818,
     50.081326
    ]
   },
   "properties": {
    "id": "ipr-kultzar-187",
    "name": "Divadlo Palace",
    "subtype": "divadlo",
    "typ_uap": "05_01",
    "cooling": "ac",
    "tier": "A",
    "address": "Václavské náměstí 819/43",
    "web": "www.divadlopalace.cz",
    "bezbar": false,
    "source": "IPR Praha – ÚAP"
   }
  },
  {
   "type": "Feature",
   "geometry": {
    "type": "Point",
    "coordinates": [
     14.44681,
     50.083371
    ]
   },
   "properties": {
    "id": "ipr-kultzar-57",
    "name": "Vlkova 26",
    "subtype": "kulturní dům",
    "typ_uap": "05_03",
    "cooling": "ac",
    "tier": "B",
    "address": "Vlkova 699/26",
    "web": "www.facebook.com/Vlkova26/",
    "bezbar": false,
    "source": "IPR Praha – ÚAP"
   }
  },
  {
   "type": "Feature",
   "geometry": {
    "type": "Point",
    "coordinates": [
     14.422805,
     50.085487
    ]
   },
   "properties": {
    "id": "ipr-kultzar-19",
    "name": "Divadlo V Rytířské",
    "subtype": "divadlo",
    "typ_uap": "05_01",
    "cooling": "ac",
    "tier": "A",
    "address": "Rytířská 539/31",
    "web": "www.divadlovrytirske.cz/",
    "bezbar": true,
    "source": "IPR Praha – ÚAP"
   }
  },
  {
   "type": "Feature",
   "geometry": {
    "type": "Point",
    "coordinates": [
     14.41411,
     50.077499
    ]
   },
   "properties": {
    "id": "ipr-kultzar-160",
    "name": "Galerie Mánes",
    "subtype": "galerie",
    "typ_uap": "05_08",
    "cooling": "ac",
    "tier": "A",
    "address": "Masarykovo nábřeží 250/1",
    "web": "www.galeriemanes.com",
    "bezbar": false,
    "source": "IPR Praha – ÚAP"
   }
  },
  {
   "type": "Feature",
   "geometry": {
    "type": "Point",
    "coordinates": [
     14.399628,
     50.071102
    ]
   },
   "properties": {
    "id": "ipr-kultzar-644",
    "name": "400 ASA Gallery",
    "subtype": "galerie",
    "typ_uap": "05_08",
    "cooling": "ac",
    "tier": "A",
    "address": "Kováků 2237/32",
    "web": "https://400asa.org/gallery",
    "bezbar": false,
    "source": "IPR Praha – ÚAP"
   }
  },
  {
   "type": "Feature",
   "geometry": {
    "type": "Point",
    "coordinates": [
     14.418631,
     50.115937
    ]
   },
   "properties": {
    "id": "ipr-kultzar-506",
    "name": "Galerie U zřícené lávky",
    "subtype": "galerie",
    "typ_uap": "05_08",
    "cooling": "ac",
    "tier": "A",
    "address": "Povltavská 21/42",
    "web": "www.facebook.com/pages/category/Art-Gallery/Galerie-u-z%C5%99%C3%ADcen%C3%A9-l%C3%A1vky-197426440979653/",
    "bezbar": false,
    "source": "IPR Praha – ÚAP"
   }
  },
  {
   "type": "Feature",
   "geometry": {
    "type": "Point",
    "coordinates": [
     14.301668,
     50.065159
    ]
   },
   "properties": {
    "id": "ipr-kultzar-508",
    "name": "Galerie KC Průhon",
    "subtype": "galerie",
    "typ_uap": "05_08",
    "cooling": "ac",
    "tier": "A",
    "address": "Socháňova 1220/27",
    "web": "www.pruhon.cz",
    "bezbar": true,
    "source": "IPR Praha – ÚAP"
   }
  },
  {
   "type": "Feature",
   "geometry": {
    "type": "Point",
    "coordinates": [
     14.419218,
     50.086467
    ]
   },
   "properties": {
    "id": "ipr-kultzar-357",
    "name": "Polský institut v Praze",
    "subtype": "kulturní institut",
    "typ_uap": "05_09",
    "cooling": "ac",
    "tier": "A",
    "address": "Malé náměstí 144/1",
    "web": "www.polskyinstitut.cz/cz/",
    "bezbar": false,
    "source": "IPR Praha – ÚAP"
   }
  },
  {
   "type": "Feature",
   "geometry": {
    "type": "Point",
    "coordinates": [
     14.408469,
     50.084031
    ]
   },
   "properties": {
    "id": "ipr-kultzar-242",
    "name": "Museum Kampa",
    "subtype": "muzeum",
    "typ_uap": "05_07",
    "cooling": "ac",
    "tier": "A",
    "address": "U Sovových mlýnů 503/2",
    "web": "www.museumkampa.cz",
    "bezbar": false,
    "source": "IPR Praha – ÚAP"
   }
  },
  {
   "type": "Feature",
   "geometry": {
    "type": "Point",
    "coordinates": [
     14.418151,
     50.082234
    ]
   },
   "properties": {
    "id": "ipr-kultzar-331",
    "name": "Jam Cafe",
    "subtype": "kulturní dům",
    "typ_uap": "05_03",
    "cooling": "ac",
    "tier": "B",
    "address": "Národní 961/25",
    "web": "jamcafe.cz",
    "bezbar": false,
    "source": "IPR Praha – ÚAP"
   }
  },
  {
   "type": "Feature",
   "geometry": {
    "type": "Point",
    "coordinates": [
     14.422068,
     50.079433
    ]
   },
   "properties": {
    "id": "ipr-kultzar-266",
    "name": "Divadlo Komedie",
    "subtype": "divadlo",
    "typ_uap": "05_01",
    "cooling": "ac",
    "tier": "A",
    "address": "Jungmannova 15/1",
    "web": "www.mestskadivadlaprazska.cz/komedie/divadlo-komedie/",
    "bezbar": false,
    "source": "IPR Praha – ÚAP"
   }
  },
  {
   "type": "Feature",
   "geometry": {
    "type": "Point",
    "coordinates": [
     14.445529,
     50.098386
    ]
   },
   "properties": {
    "id": "ipr-kultzar-315",
    "name": "Trafo Gallery",
    "subtype": "galerie",
    "typ_uap": "05_08",
    "cooling": "ac",
    "tier": "A",
    "address": "Bubenské nábřeží 306/13",
    "web": "trafogallery.cz",
    "bezbar": false,
    "source": "IPR Praha – ÚAP"
   }
  },
  {
   "type": "Feature",
   "geometry": {
    "type": "Point",
    "coordinates": [
     14.441226,
     50.090208
    ]
   },
   "properties": {
    "id": "ipr-kultzar-366",
    "name": "Theatro Music Club",
    "subtype": "kulturní dům",
    "typ_uap": "05_03",
    "cooling": "ac",
    "tier": "B",
    "address": "Křižíkova 283/10",
    "web": "theatro.cz/theatro-music-club/",
    "bezbar": true,
    "source": "IPR Praha – ÚAP"
   }
  },
  {
   "type": "Feature",
   "geometry": {
    "type": "Point",
    "coordinates": [
     14.403905,
     50.085526
    ]
   },
   "properties": {
    "id": "ipr-kultzar-307",
    "name": "Muzeum U Pražského jezulátka",
    "subtype": "muzeum",
    "typ_uap": "05_07",
    "cooling": "ac",
    "tier": "A",
    "address": "Karmelitská 385/9",
    "web": "www.pragjesu.cz/muzeum/",
    "bezbar": false,
    "source": "IPR Praha – ÚAP"
   }
  },
  {
   "type": "Feature",
   "geometry": {
    "type": "Point",
    "coordinates": [
     14.432788,
     50.101074
    ]
   },
   "properties": {
    "id": "ipr-kultzar-91",
    "name": "Studio Hrdinů",
    "subtype": "divadlo",
    "typ_uap": "05_01",
    "cooling": "ac",
    "tier": "A",
    "address": "Dukelských hrdinů 530/47",
    "web": "www.studiohrdinu.cz/",
    "bezbar": false,
    "source": "IPR Praha – ÚAP"
   }
  },
  {
   "type": "Feature",
   "geometry": {
    "type": "Point",
    "coordinates": [
     14.417393,
     50.087395
    ]
   },
   "properties": {
    "id": "ipr-kultzar-305",
    "name": "Městská knihovna 2.patro",
    "subtype": "muzeum",
    "typ_uap": "05_07",
    "cooling": "ac",
    "tier": "A",
    "address": "Mariánské náměstí 98/1",
    "web": "www.ghmp.cz/mestska-knihovna-2-patro",
    "bezbar": false,
    "source": "IPR Praha – ÚAP"
   }
  },
  {
   "type": "Feature",
   "geometry": {
    "type": "Point",
    "coordinates": [
     14.457198,
     50.06382
    ]
   },
   "properties": {
    "id": "ipr-kultzar-54",
    "name": "Ankali",
    "subtype": "kulturní dům",
    "typ_uap": "05_03",
    "cooling": "ac",
    "tier": "B",
    "address": "Lopuchová 58/6",
    "web": "www.anka.li",
    "bezbar": false,
    "source": "IPR Praha – ÚAP"
   }
  },
  {
   "type": "Feature",
   "geometry": {
    "type": "Point",
    "coordinates": [
     14.449747,
     50.100062
    ]
   },
   "properties": {
    "id": "ipr-kultzar-29",
    "name": "RockOpera Praha",
    "subtype": "divadlo",
    "typ_uap": "05_01",
    "cooling": "ac",
    "tier": "A",
    "address": "Komunardů 306/1",
    "web": "www.rockopera.cz",
    "bezbar": false,
    "source": "IPR Praha – ÚAP"
   }
  },
  {
   "type": "Feature",
   "geometry": {
    "type": "Point",
    "coordinates": [
     14.435505,
     50.099719
    ]
   },
   "properties": {
    "id": "ipr-kultzar-4",
    "name": "Divadlo Radar",
    "subtype": "divadlo",
    "typ_uap": "05_01",
    "cooling": "ac",
    "tier": "A",
    "address": "Pplk. Sochora 1387/9",
    "web": "divadloradar.cz/",
    "bezbar": false,
    "source": "IPR Praha – ÚAP"
   }
  },
  {
   "type": "Feature",
   "geometry": {
    "type": "Point",
    "coordinates": [
     14.44468,
     50.058085
    ]
   },
   "properties": {
    "id": "ipr-kultzar-181",
    "name": "Divadlo Na Jezerce",
    "subtype": "divadlo",
    "typ_uap": "05_01",
    "cooling": "ac",
    "tier": "A",
    "address": "Na Jezerce 1451/2a",
    "web": "www.divadlonajezerce.cz",
    "bezbar": true,
    "source": "IPR Praha – ÚAP"
   }
  },
  {
   "type": "Feature",
   "geometry": {
    "type": "Point",
    "coordinates": [
     14.417678,
     50.087724
    ]
   },
   "properties": {
    "id": "ipr-kultzar-96",
    "name": "Divadlo Říše loutek",
    "subtype": "divadlo",
    "typ_uap": "05_01",
    "cooling": "ac",
    "tier": "A",
    "address": "Žatecká 98/1",
    "web": "www.riseloutek.cz",
    "bezbar": false,
    "source": "IPR Praha – ÚAP"
   }
  },
  {
   "type": "Feature",
   "geometry": {
    "type": "Point",
    "coordinates": [
     14.432788,
     50.101074
    ]
   },
   "properties": {
    "id": "ipr-kultzar-201",
    "name": "Veletržní palác",
    "subtype": "muzeum",
    "typ_uap": "05_07",
    "cooling": "ac",
    "tier": "A",
    "address": "Dukelských hrdinů 530/47",
    "web": "www.ngprague.cz",
    "bezbar": true,
    "source": "IPR Praha – ÚAP"
   }
  },
  {
   "type": "Feature",
   "geometry": {
    "type": "Point",
    "coordinates": [
     14.413471,
     50.081258
    ]
   },
   "properties": {
    "id": "ipr-kultzar-10",
    "name": "Národní divadlo - historická budova",
    "subtype": "divadlo",
    "typ_uap": "05_01",
    "cooling": "ac",
    "tier": "A",
    "address": "Národní 223/2",
    "web": "www.narodni-divadlo.cz",
    "bezbar": false,
    "source": "IPR Praha – ÚAP"
   }
  },
  {
   "type": "Feature",
   "geometry": {
    "type": "Point",
    "coordinates": [
     14.434344,
     50.090037
    ]
   },
   "properties": {
    "id": "ipr-kultzar-35",
    "name": "Art & Event Gallery Černá labuť",
    "subtype": "galerie",
    "typ_uap": "05_08",
    "cooling": "ac",
    "tier": "A",
    "address": "Na Poříčí 1067/25",
    "web": "https://www.cernalabut.cz/cs/",
    "bezbar": true,
    "source": "IPR Praha – ÚAP"
   }
  },
  {
   "type": "Feature",
   "geometry": {
    "type": "Point",
    "coordinates": [
     14.454254,
     50.080562
    ]
   },
   "properties": {
    "id": "ipr-kultzar-631",
    "name": "Kukmál Hilda",
    "subtype": "galerie",
    "typ_uap": "05_08",
    "cooling": "ac",
    "tier": "A",
    "address": "Bořivojova 2421/17",
    "web": "facebook.com/kukmalhilda",
    "bezbar": false,
    "source": "IPR Praha – ÚAP"
   }
  },
  {
   "type": "Feature",
   "geometry": {
    "type": "Point",
    "coordinates": [
     14.415196,
     50.081573
    ]
   },
   "properties": {
    "id": "ipr-kultzar-107",
    "name": "Galerie Kodl",
    "subtype": "galerie",
    "typ_uap": "05_08",
    "cooling": "ac",
    "tier": "A",
    "address": "Národní 1011/7",
    "web": "www.galeriekodl.cz",
    "bezbar": false,
    "source": "IPR Praha – ÚAP"
   }
  },
  {
   "type": "Feature",
   "geometry": {
    "type": "Point",
    "coordinates": [
     14.450142,
     50.103729
    ]
   },
   "properties": {
    "id": "ipr-kultzar-6",
    "name": "Studio 1",
    "subtype": "divadlo",
    "typ_uap": "05_01",
    "cooling": "ac",
    "tier": "A",
    "address": "Komunardů 1001/30",
    "web": "www.lafabrika.cz/",
    "bezbar": true,
    "source": "IPR Praha – ÚAP"
   }
  },
  {
   "type": "Feature",
   "geometry": {
    "type": "Point",
    "coordinates": [
     14.394774,
     50.088289
    ]
   },
   "properties": {
    "id": "ipr-kultzar-220",
    "name": "Galerie Josefa Sudka",
    "subtype": "muzeum",
    "typ_uap": "05_07",
    "cooling": "ac",
    "tier": "A",
    "address": "Úvoz 160/24",
    "web": "www.upm.cz",
    "bezbar": true,
    "source": "IPR Praha – ÚAP"
   }
  },
  {
   "type": "Feature",
   "geometry": {
    "type": "Point",
    "coordinates": [
     14.444301,
     50.082488
    ]
   },
   "properties": {
    "id": "ipr-kultzar-86",
    "name": "Nevan Contempo",
    "subtype": "galerie",
    "typ_uap": "05_08",
    "cooling": "ac",
    "tier": "A",
    "address": "U Rajské zahrady 809/14",
    "web": "www.nevan.gallery",
    "bezbar": true,
    "source": "IPR Praha – ÚAP"
   }
  },
  {
   "type": "Feature",
   "geometry": {
    "type": "Point",
    "coordinates": [
     14.399701,
     50.091036
    ]
   },
   "properties": {
    "id": "ipr-kultzar-219",
    "name": "Císařská konírna",
    "subtype": "muzeum",
    "typ_uap": "05_07",
    "cooling": "ac",
    "tier": "A",
    "address": null,
    "web": "www.kulturanahrade.cz",
    "bezbar": false,
    "source": "IPR Praha – ÚAP"
   }
  },
  {
   "type": "Feature",
   "geometry": {
    "type": "Point",
    "coordinates": [
     14.400152,
     50.088433
    ]
   },
   "properties": {
    "id": "ipr-kultzar-241",
    "name": "MuMo - Museum Montanelli",
    "subtype": "muzeum",
    "typ_uap": "05_07",
    "cooling": "ac",
    "tier": "A",
    "address": "Nerudova 250/13",
    "web": "www.museummontanelli.com",
    "bezbar": false,
    "source": "IPR Praha – ÚAP"
   }
  },
  {
   "type": "Feature",
   "geometry": {
    "type": "Point",
    "coordinates": [
     14.422221,
     50.080207
    ]
   },
   "properties": {
    "id": "ipr-kultzar-175",
    "name": "Divadlo Kalich",
    "subtype": "divadlo",
    "typ_uap": "05_01",
    "cooling": "ac",
    "tier": "A",
    "address": "Jungmannova 22/9",
    "web": "www.divadlokalich.cz",
    "bezbar": false,
    "source": "IPR Praha – ÚAP"
   }
  },
  {
   "type": "Feature",
   "geometry": {
    "type": "Point",
    "coordinates": [
     14.502664,
     50.111827
    ]
   },
   "properties": {
    "id": "ipr-kultzar-363",
    "name": "Klub Kocour",
    "subtype": "kulturní dům",
    "typ_uap": "05_03",
    "cooling": "ac",
    "tier": "B",
    "address": "Jandova 207/4",
    "web": "www.divadlogong.cz/klub-kocour/o-klubu-kocour",
    "bezbar": false,
    "source": "IPR Praha – ÚAP"
   }
  },
  {
   "type": "Feature",
   "geometry": {
    "type": "Point",
    "coordinates": [
     14.405791,
     50.098999
    ]
   },
   "properties": {
    "id": "ipr-kultzar-285",
    "name": "Potrvá",
    "subtype": "kulturní dům",
    "typ_uap": "05_03",
    "cooling": "ac",
    "tier": "B",
    "address": "Srbská 347/2",
    "web": "www.potrva.cz/cs/",
    "bezbar": false,
    "source": "IPR Praha – ÚAP"
   }
  },
  {
   "type": "Feature",
   "geometry": {
    "type": "Point",
    "coordinates": [
     14.432269,
     50.075892
    ]
   },
   "properties": {
    "id": "ipr-kultzar-50",
    "name": "Radost FX",
    "subtype": "kulturní dům",
    "typ_uap": "05_03",
    "cooling": "ac",
    "tier": "B",
    "address": "Bělehradská 234/120",
    "web": "radostfx.cz/",
    "bezbar": false,
    "source": "IPR Praha – ÚAP"
   }
  },
  {
   "type": "Feature",
   "geometry": {
    "type": "Point",
    "coordinates": [
     14.418662,
     50.088781
    ]
   },
   "properties": {
    "id": "ipr-kultzar-231",
    "name": "Maiselova synagoga",
    "subtype": "muzeum",
    "typ_uap": "05_07",
    "cooling": "ac",
    "tier": "A",
    "address": "Maiselova 63/10",
    "web": "www.jewishmuseum.cz",
    "bezbar": true,
    "source": "IPR Praha – ÚAP"
   }
  },
  {
   "type": "Feature",
   "geometry": {
    "type": "Point",
    "coordinates": [
     14.419375,
     50.101394
    ]
   },
   "properties": {
    "id": "ipr-kultzar-66",
    "name": "Galerie budoart",
    "subtype": "galerie",
    "typ_uap": "05_08",
    "cooling": "ac",
    "tier": "A",
    "address": "Havanská 1087/3a",
    "web": "www.budoart.cz",
    "bezbar": false,
    "source": "IPR Praha – ÚAP"
   }
  },
  {
   "type": "Feature",
   "geometry": {
    "type": "Point",
    "coordinates": [
     14.442152,
     50.108875
    ]
   },
   "properties": {
    "id": "ipr-kultzar-661",
    "name": "Muzeum PRE",
    "subtype": "muzeum",
    "typ_uap": "05_07",
    "cooling": "ac",
    "tier": "A",
    "address": "Jankovcova 960/40",
    "web": "www.pre.cz/muzeum",
    "bezbar": false,
    "source": "IPR Praha – ÚAP"
   }
  },
  {
   "type": "Feature",
   "geometry": {
    "type": "Point",
    "coordinates": [
     14.426407,
     50.080891
    ]
   },
   "properties": {
    "id": "ipr-kultzar-512",
    "name": "Galerie Lucerna - Prostor pro současné umění",
    "subtype": "galerie",
    "typ_uap": "05_08",
    "cooling": "ac",
    "tier": "A",
    "address": "Štěpánská 704/61",
    "web": "www.lucerna.cz/cz/141_galerie",
    "bezbar": false,
    "source": "IPR Praha – ÚAP"
   }
  },
  {
   "type": "Feature",
   "geometry": {
    "type": "Point",
    "coordinates": [
     14.511067,
     50.110416
    ]
   },
   "properties": {
    "id": "ipr-kultzar-340",
    "name": "The White Room Gallery",
    "subtype": "galerie",
    "typ_uap": "05_08",
    "cooling": "ac",
    "tier": "A",
    "address": "Kolbenova 923/34a",
    "web": "www.pragovka.com",
    "bezbar": false,
    "source": "IPR Praha – ÚAP"
   }
  },
  {
   "type": "Feature",
   "geometry": {
    "type": "Point",
    "coordinates": [
     14.425195,
     50.078827
    ]
   },
   "properties": {
    "id": "ipr-kultzar-356",
    "name": "Francouzský institut v Praze",
    "subtype": "kulturní institut",
    "typ_uap": "05_09",
    "cooling": "ac",
    "tier": "A",
    "address": "Štěpánská 644/35",
    "web": "www.ifp.cz",
    "bezbar": true,
    "source": "IPR Praha – ÚAP"
   }
  },
  {
   "type": "Feature",
   "geometry": {
    "type": "Point",
    "coordinates": [
     14.423297,
     50.085782
    ]
   },
   "properties": {
    "id": "ipr-kultzar-13",
    "name": "Stavovské divadlo",
    "subtype": "divadlo",
    "typ_uap": "05_01",
    "cooling": "ac",
    "tier": "A",
    "address": "Železná 540/11",
    "web": "www.narodni-divadlo.cz/cs/stavovske-divadlo",
    "bezbar": false,
    "source": "IPR Praha – ÚAP"
   }
  },
  {
   "type": "Feature",
   "geometry": {
    "type": "Point",
    "coordinates": [
     14.431349,
     50.103984
    ]
   },
   "properties": {
    "id": "ipr-kultzar-391",
    "name": "Wildt",
    "subtype": "kulturní dům",
    "typ_uap": "05_03",
    "cooling": "ac",
    "tier": "B",
    "address": "Dukelských hrdinů 770/53",
    "web": "www.facebook.com/wildtbar",
    "bezbar": false,
    "source": "IPR Praha – ÚAP"
   }
  },
  {
   "type": "Feature",
   "geometry": {
    "type": "Point",
    "coordinates": [
     14.43172,
     50.105603
    ]
   },
   "properties": {
    "id": "ipr-kultzar-487",
    "name": "Mořský svět",
    "subtype": "muzeum",
    "typ_uap": "05_07",
    "cooling": "ac",
    "tier": "A",
    "address": null,
    "web": "www.vystavistepraha.eu/areal-vystaviste/morsky-svet/",
    "bezbar": false,
    "source": "IPR Praha – ÚAP"
   }
  },
  {
   "type": "Feature",
   "geometry": {
    "type": "Point",
    "coordinates": [
     14.605896,
     50.028789
    ]
   },
   "properties": {
    "id": "ipr-kultzar-2",
    "name": "Divadlo U22",
    "subtype": "divadlo",
    "typ_uap": "05_01",
    "cooling": "ac",
    "tier": "A",
    "address": "K sokolovně 201/8",
    "web": "www.divadlou22.cz",
    "bezbar": true,
    "source": "IPR Praha – ÚAP"
   }
  },
  {
   "type": "Feature",
   "geometry": {
    "type": "Point",
    "coordinates": [
     14.445755,
     50.086873
    ]
   },
   "properties": {
    "id": "ipr-kultzar-640",
    "name": "ŽižkovŠiška",
    "subtype": "multifunkční sál",
    "typ_uap": "05_05",
    "cooling": "ac",
    "tier": "A",
    "address": "Husitská 888/11",
    "web": "www.zizkovsiska.cz",
    "bezbar": false,
    "source": "IPR Praha – ÚAP"
   }
  },
  {
   "type": "Feature",
   "geometry": {
    "type": "Point",
    "coordinates": [
     14.670302,
     50.096855
    ]
   },
   "properties": {
    "id": "ipr-kultzar-368",
    "name": "Kino Beseda Praha - Klánovice",
    "subtype": "kino",
    "typ_uap": "05_02",
    "cooling": "ac",
    "tier": "A",
    "address": "Slavětínská 120",
    "web": "www.kcbeseda.eu",
    "bezbar": false,
    "source": "IPR Praha – ÚAP"
   }
  },
  {
   "type": "Feature",
   "geometry": {
    "type": "Point",
    "coordinates": [
     14.414056,
     50.086411
    ]
   },
   "properties": {
    "id": "ipr-kultzar-246",
    "name": "Muzeum Karlova mostu",
    "subtype": "muzeum",
    "typ_uap": "05_07",
    "cooling": "ac",
    "tier": "A",
    "address": "Křižovnické náměstí 191/3",
    "web": "www.muzeumkarlovamostu.cz",
    "bezbar": false,
    "source": "IPR Praha – ÚAP"
   }
  },
  {
   "type": "Feature",
   "geometry": {
    "type": "Point",
    "coordinates": [
     14.416355,
     50.068014
    ]
   },
   "properties": {
    "id": "ipr-kultzar-75",
    "name": "Galerie Výtoň",
    "subtype": "galerie",
    "typ_uap": "05_08",
    "cooling": "ac",
    "tier": "A",
    "address": "Na výtoni 254/2",
    "web": "www.vyton.cz",
    "bezbar": false,
    "source": "IPR Praha – ÚAP"
   }
  },
  {
   "type": "Feature",
   "geometry": {
    "type": "Point",
    "coordinates": [
     14.41769,
     50.084034
    ]
   },
   "properties": {
    "id": "ipr-kultzar-128",
    "name": "Galerie U Betlémské kaple",
    "subtype": "galerie",
    "typ_uap": "05_08",
    "cooling": "ac",
    "tier": "A",
    "address": "Betlémské náměstí 1004/8",
    "web": "www.galerieubetlemskekaple.cz",
    "bezbar": false,
    "source": "IPR Praha – ÚAP"
   }
  },
  {
   "type": "Feature",
   "geometry": {
    "type": "Point",
    "coordinates": [
     14.393329,
     50.106844
    ]
   },
   "properties": {
    "id": "ipr-kultzar-166",
    "name": "Dejvické divadlo",
    "subtype": "divadlo",
    "typ_uap": "05_01",
    "cooling": "ac",
    "tier": "A",
    "address": "Zelená 1084/15a",
    "web": "www.dejvickedivadlo.cz/",
    "bezbar": true,
    "source": "IPR Praha – ÚAP"
   }
  },
  {
   "type": "Feature",
   "geometry": {
    "type": "Point",
    "coordinates": [
     14.448201,
     50.086892
    ]
   },
   "properties": {
    "id": "ipr-kultzar-344",
    "name": "Galerie A.M. 180",
    "subtype": "galerie",
    "typ_uap": "05_08",
    "cooling": "ac",
    "tier": "A",
    "address": "Jeronýmova 88/9",
    "web": "www.facebook.com/galerieam180/",
    "bezbar": false,
    "source": "IPR Praha – ÚAP"
   }
  },
  {
   "type": "Feature",
   "geometry": {
    "type": "Point",
    "coordinates": [
     14.455011,
     50.091476
    ]
   },
   "properties": {
    "id": "ipr-kultzar-595",
    "name": "Fórum Karlín",
    "subtype": "multifunkční sál",
    "typ_uap": "05_05",
    "cooling": "ac",
    "tier": "A",
    "address": "Pernerova 676/51",
    "web": "www.forumkarlin.cz",
    "bezbar": true,
    "source": "IPR Praha – ÚAP"
   }
  },
  {
   "type": "Feature",
   "geometry": {
    "type": "Point",
    "coordinates": [
     14.405905,
     50.087446
    ]
   },
   "properties": {
    "id": "ipr-kultzar-142",
    "name": "Muzeum pražských pověstí a strašidel",
    "subtype": "muzeum",
    "typ_uap": "05_07",
    "cooling": "ac",
    "tier": "A",
    "address": "Mostecká 46/18",
    "web": "www.muzeumpovesti.cz",
    "bezbar": false,
    "source": "IPR Praha – ÚAP"
   }
  },
  {
   "type": "Feature",
   "geometry": {
    "type": "Point",
    "coordinates": [
     14.425473,
     50.086914
    ]
   },
   "properties": {
    "id": "ipr-kultzar-152",
    "name": "Expozice českého kubismu",
    "subtype": "muzeum",
    "typ_uap": "05_07",
    "cooling": "ac",
    "tier": "A",
    "address": "Ovocný trh 569/19",
    "web": "www.czkubismus.cz/",
    "bezbar": false,
    "source": "IPR Praha – ÚAP"
   }
  },
  {
   "type": "Feature",
   "geometry": {
    "type": "Point",
    "coordinates": [
     14.450733,
     50.075497
    ]
   },
   "properties": {
    "id": "ipr-kultzar-637",
    "name": "Restaurace U Vodárny - hudební klub",
    "subtype": "kulturní dům",
    "typ_uap": "05_03",
    "cooling": "ac",
    "tier": "B",
    "address": "Korunní 972/75",
    "web": null,
    "bezbar": false,
    "source": "IPR Praha – ÚAP"
   }
  },
  {
   "type": "Feature",
   "geometry": {
    "type": "Point",
    "coordinates": [
     14.421698,
     50.084724
    ]
   },
   "properties": {
    "id": "ipr-kultzar-355",
    "name": "Lisztův institut Maďarské kulturní centrum Praha",
    "subtype": "kulturní institut",
    "typ_uap": "05_09",
    "cooling": "ac",
    "tier": "A",
    "address": "Rytířská 963/25",
    "web": "https://culture.hu/cz/praha/o-nas",
    "bezbar": false,
    "source": "IPR Praha – ÚAP"
   }
  },
  {
   "type": "Feature",
   "geometry": {
    "type": "Point",
    "coordinates": [
     14.541837,
     50.127925
    ]
   },
   "properties": {
    "id": "ipr-kultzar-222",
    "name": "Letecké muzeum Kbely",
    "subtype": "muzeum",
    "typ_uap": "05_07",
    "cooling": "ac",
    "tier": "A",
    "address": "Mladoboleslavská 902",
    "web": "www.vhu.cz",
    "bezbar": true,
    "source": "IPR Praha – ÚAP"
   }
  },
  {
   "type": "Feature",
   "geometry": {
    "type": "Point",
    "coordinates": [
     14.405599,
     50.088425
    ]
   },
   "properties": {
    "id": "ipr-kultzar-381",
    "name": "Portugalské centrum Instituto Camões v Praze",
    "subtype": "kulturní institut",
    "typ_uap": "05_09",
    "cooling": "ac",
    "tier": "A",
    "address": "Josefská 34/6",
    "web": "institutocamoes-praga.cz/",
    "bezbar": false,
    "source": "IPR Praha – ÚAP"
   }
  },
  {
   "type": "Feature",
   "geometry": {
    "type": "Point",
    "coordinates": [
     14.343064,
     50.09702
    ]
   },
   "properties": {
    "id": "ipr-kultzar-38",
    "name": "Artpro gallery",
    "subtype": "galerie",
    "typ_uap": "05_08",
    "cooling": "ac",
    "tier": "A",
    "address": "Nad Lávkou 784/3",
    "web": "www.artprogallery.com",
    "bezbar": false,
    "source": "IPR Praha – ÚAP"
   }
  },
  {
   "type": "Feature",
   "geometry": {
    "type": "Point",
    "coordinates": [
     14.428731,
     50.087729
    ]
   },
   "properties": {
    "id": "ipr-kultzar-359",
    "name": "Slovenský institut v Praze",
    "subtype": "kulturní institut",
    "typ_uap": "05_09",
    "cooling": "ac",
    "tier": "A",
    "address": "Náměstí Republiky 1037/3",
    "web": "www.mzv.sk/web/sipraha/",
    "bezbar": false,
    "source": "IPR Praha – ÚAP"
   }
  },
  {
   "type": "Feature",
   "geometry": {
    "type": "Point",
    "coordinates": [
     14.438481,
     50.090102
    ]
   },
   "properties": {
    "id": "ipr-kultzar-193",
    "name": "Hlavní budova muzea",
    "subtype": "muzeum",
    "typ_uap": "05_07",
    "cooling": "ac",
    "tier": "A",
    "address": "Na poříčí 1554/52",
    "web": "www.muzeumprahy.cz",
    "bezbar": false,
    "source": "IPR Praha – ÚAP"
   }
  },
  {
   "type": "Feature",
   "geometry": {
    "type": "Point",
    "coordinates": [
     14.424907,
     50.084946
    ]
   },
   "properties": {
    "id": "ipr-kultzar-164",
    "name": "Black Light Theatre Srnec",
    "subtype": "divadlo",
    "typ_uap": "05_01",
    "cooling": "ac",
    "tier": "A",
    "address": "Na Příkopě 852/10",
    "web": "www.srnectheatre.com",
    "bezbar": false,
    "source": "IPR Praha – ÚAP"
   }
  },
  {
   "type": "Feature",
   "geometry": {
    "type": "Point",
    "coordinates": [
     14.39151,
     50.089246
    ]
   },
   "properties": {
    "id": "ipr-kultzar-217",
    "name": "Loreta Praha",
    "subtype": "muzeum",
    "typ_uap": "05_07",
    "cooling": "ac",
    "tier": "A",
    "address": "Loretánské náměstí 100/7",
    "web": "www.loreta.cz",
    "bezbar": false,
    "source": "IPR Praha – ÚAP"
   }
  },
  {
   "type": "Feature",
   "geometry": {
    "type": "Point",
    "coordinates": [
     14.388928,
     50.071938
    ]
   },
   "properties": {
    "id": "ipr-kultzar-186",
    "name": "Divadlo Orfeus",
    "subtype": "divadlo",
    "typ_uap": "05_01",
    "cooling": "ac",
    "tier": "A",
    "address": "Plzeňská 470/76",
    "web": "www.orfeus.cz",
    "bezbar": false,
    "source": "IPR Praha – ÚAP"
   }
  },
  {
   "type": "Feature",
   "geometry": {
    "type": "Point",
    "coordinates": [
     14.448806,
     50.084222
    ]
   },
   "properties": {
    "id": "ipr-kultzar-47",
    "name": "Galerie 35M2",
    "subtype": "galerie",
    "typ_uap": "05_08",
    "cooling": "ac",
    "tier": "A",
    "address": "Víta Nejedlého 487/23",
    "web": "www.35m2.cz",
    "bezbar": true,
    "source": "IPR Praha – ÚAP"
   }
  },
  {
   "type": "Feature",
   "geometry": {
    "type": "Point",
    "coordinates": [
     14.451521,
     50.078808
    ]
   },
   "properties": {
    "id": "ipr-kultzar-501",
    "name": "Galerie Toyen",
    "subtype": "galerie",
    "typ_uap": "05_08",
    "cooling": "ac",
    "tier": "A",
    "address": "Milešovská 846/1",
    "web": "www.galerietoyen.cz",
    "bezbar": true,
    "source": "IPR Praha – ÚAP"
   }
  },
  {
   "type": "Feature",
   "geometry": {
    "type": "Point",
    "coordinates": [
     14.407048,
     50.08428
    ]
   },
   "properties": {
    "id": "ipr-kultzar-177",
    "name": "Divadlo Kampa",
    "subtype": "divadlo",
    "typ_uap": "05_01",
    "cooling": "ac",
    "tier": "A",
    "address": "Nosticova 634/2a",
    "web": "www.divadlokampa.cz",
    "bezbar": false,
    "source": "IPR Praha – ÚAP"
   }
  },
  {
   "type": "Feature",
   "geometry": {
    "type": "Point",
    "coordinates": [
     14.41903,
     50.08307
    ]
   },
   "properties": {
    "id": "ipr-kultzar-182",
    "name": "Malá scéna StudiaDva",
    "subtype": "divadlo",
    "typ_uap": "05_01",
    "cooling": "ac",
    "tier": "A",
    "address": "Na Perštýně 359/6",
    "web": "https://www.studiodva.cz/o-divadle/mala-scena/",
    "bezbar": false,
    "source": "IPR Praha – ÚAP"
   }
  },
  {
   "type": "Feature",
   "geometry": {
    "type": "Point",
    "coordinates": [
     14.426901,
     50.090793
    ]
   },
   "properties": {
    "id": "ipr-kultzar-18",
    "name": "Divadlo V Dlouhé",
    "subtype": "divadlo",
    "typ_uap": "05_01",
    "cooling": "ac",
    "tier": "A",
    "address": "Dlouhá 727/39",
    "web": "www.divadlovdlouhe.cz/",
    "bezbar": false,
    "source": "IPR Praha – ÚAP"
   }
  },
  {
   "type": "Feature",
   "geometry": {
    "type": "Point",
    "coordinates": [
     14.43559,
     50.090761
    ]
   },
   "properties": {
    "id": "ipr-kultzar-110",
    "name": "Galerie KusKovu",
    "subtype": "galerie",
    "typ_uap": "05_08",
    "cooling": "ac",
    "tier": "A",
    "address": "Biskupský dvůr 1147/6",
    "web": "www.kuskovu.cz",
    "bezbar": true,
    "source": "IPR Praha – ÚAP"
   }
  },
  {
   "type": "Feature",
   "geometry": {
    "type": "Point",
    "coordinates": [
     14.424908,
     50.097334
    ]
   },
   "properties": {
    "id": "ipr-kultzar-145",
    "name": "Národní technické muzeum",
    "subtype": "muzeum",
    "typ_uap": "05_07",
    "cooling": "ac",
    "tier": "A",
    "address": "Kostelní 1320/42",
    "web": "www.ntm.cz",
    "bezbar": true,
    "source": "IPR Praha – ÚAP"
   }
  },
  {
   "type": "Feature",
   "geometry": {
    "type": "Point",
    "coordinates": [
     14.425478,
     50.098191
    ]
   },
   "properties": {
    "id": "ipr-kultzar-27",
    "name": "Divadelní klub Letka",
    "subtype": "divadlo",
    "typ_uap": "05_01",
    "cooling": "ac",
    "tier": "A",
    "address": "Letohradská 557/44",
    "web": "https://www.klubletka.cz/",
    "bezbar": false,
    "source": "IPR Praha – ÚAP"
   }
  },
  {
   "type": "Feature",
   "geometry": {
    "type": "Point",
    "coordinates": [
     14.452675,
     50.081699
    ]
   },
   "properties": {
    "id": "ipr-kultzar-563",
    "name": "Atrium na Žižkově",
    "subtype": "koncertní sál",
    "typ_uap": "05_04",
    "cooling": "ac",
    "tier": "A",
    "address": "Čajkovského 2422/12",
    "web": "www.atriumzizkov.cz",
    "bezbar": false,
    "source": "IPR Praha – ÚAP"
   }
  },
  {
   "type": "Feature",
   "geometry": {
    "type": "Point",
    "coordinates": [
     14.428407,
     50.081161
    ]
   },
   "properties": {
    "id": "ipr-kultzar-143",
    "name": "Muzeum studené války",
    "subtype": "muzeum",
    "typ_uap": "05_07",
    "cooling": "ac",
    "tier": "A",
    "address": "Václavské náměstí 818/45",
    "web": "www.muzeum-studene-valky.cz/",
    "bezbar": false,
    "source": "IPR Praha – ÚAP"
   }
  },
  {
   "type": "Feature",
   "geometry": {
    "type": "Point",
    "coordinates": [
     14.414231,
     50.081541
    ]
   },
   "properties": {
    "id": "ipr-kultzar-496",
    "name": "Galerie věda a umění",
    "subtype": "galerie",
    "typ_uap": "05_08",
    "cooling": "ac",
    "tier": "A",
    "address": "Národní 1009/3",
    "web": "www.avcr.cz/cs/pro-verejnost/vystavy/vystavy-v-budove-av-cr/",
    "bezbar": true,
    "source": "IPR Praha – ÚAP"
   }
  },
  {
   "type": "Feature",
   "geometry": {
    "type": "Point",
    "coordinates": [
     14.433925,
     50.076977
    ]
   },
   "properties": {
    "id": "ipr-kultzar-58",
    "name": "Balbínova poetická hospůdka",
    "subtype": "kulturní dům",
    "typ_uap": "05_03",
    "cooling": "ac",
    "tier": "B",
    "address": "Balbínova 323/6",
    "web": "www.balbinka.cz",
    "bezbar": false,
    "source": "IPR Praha – ÚAP"
   }
  },
  {
   "type": "Feature",
   "geometry": {
    "type": "Point",
    "coordinates": [
     14.416934,
     50.089169
    ]
   },
   "properties": {
    "id": "ipr-kultzar-228",
    "name": "Pinkasova synagoga",
    "subtype": "muzeum",
    "typ_uap": "05_07",
    "cooling": "ac",
    "tier": "A",
    "address": "Široká 23/3",
    "web": "www.jewishmuseum.cz",
    "bezbar": false,
    "source": "IPR Praha – ÚAP"
   }
  },
  {
   "type": "Feature",
   "geometry": {
    "type": "Point",
    "coordinates": [
     14.476278,
     50.103607
    ]
   },
   "properties": {
    "id": "ipr-kultzar-667",
    "name": "Kino Humanita",
    "subtype": "kino",
    "typ_uap": "05_02",
    "cooling": "ac",
    "tier": "A",
    "address": "Novákových 489/20",
    "web": "www.humanita489.cz",
    "bezbar": false,
    "source": "IPR Praha – ÚAP"
   }
  },
  {
   "type": "Feature",
   "geometry": {
    "type": "Point",
    "coordinates": [
     14.459179,
     50.082026
    ]
   },
   "properties": {
    "id": "ipr-kultzar-623",
    "name": "Coffee imrvére",
    "subtype": "literární kavárna",
    "typ_uap": "05_10",
    "cooling": "ac",
    "tier": "B",
    "address": "Olšanské náměstí 1785/5",
    "web": "www.coffeeimrvere.cz",
    "bezbar": false,
    "source": "IPR Praha – ÚAP"
   }
  },
  {
   "type": "Feature",
   "geometry": {
    "type": "Point",
    "coordinates": [
     14.407299,
     50.101796
    ]
   },
   "properties": {
    "id": "ipr-kultzar-485",
    "name": "Malá vila (Pracovna Ladislava Mňačka)",
    "subtype": "muzeum",
    "typ_uap": "05_07",
    "cooling": "ac",
    "tier": "A",
    "address": "Pelléova 70/20",
    "web": "www.pamatniknarodnihopisemnictvi.cz",
    "bezbar": false,
    "source": "IPR Praha – ÚAP"
   }
  },
  {
   "type": "Feature",
   "geometry": {
    "type": "Point",
    "coordinates": [
     14.486199,
     50.10495
    ]
   },
   "properties": {
    "id": "ipr-kultzar-668",
    "name": "Beseder Gallery",
    "subtype": "galerie",
    "typ_uap": "05_08",
    "cooling": "ac",
    "tier": "A",
    "address": "Lihovarská  1060/12",
    "web": "www.besedergallery.art",
    "bezbar": false,
    "source": "IPR Praha – ÚAP"
   }
  },
  {
   "type": "Feature",
   "geometry": {
    "type": "Point",
    "coordinates": [
     14.430563,
     50.104616
    ]
   },
   "properties": {
    "id": "ipr-kultzar-294",
    "name": "Průmyslový palác",
    "subtype": "multifunkční sál",
    "typ_uap": "05_05",
    "cooling": "ac",
    "tier": "A",
    "address": "Výstaviště 67",
    "web": "https://www.navystavisti.cz/areal/prumyslovy-palac/",
    "bezbar": false,
    "source": "IPR Praha – ÚAP"
   }
  },
  {
   "type": "Feature",
   "geometry": {
    "type": "Point",
    "coordinates": [
     14.421013,
     50.090211
    ]
   },
   "properties": {
    "id": "ipr-kultzar-229",
    "name": "Španělská synagoga",
    "subtype": "muzeum",
    "typ_uap": "05_07",
    "cooling": "ac",
    "tier": "A",
    "address": "Vězeňská 141/1",
    "web": "www.jewishmuseum.cz",
    "bezbar": false,
    "source": "IPR Praha – ÚAP"
   }
  },
  {
   "type": "Feature",
   "geometry": {
    "type": "Point",
    "coordinates": [
     14.427806,
     50.089814
    ]
   },
   "properties": {
    "id": "ipr-kultzar-364",
    "name": "Epic",
    "subtype": "kulturní dům",
    "typ_uap": "05_03",
    "cooling": "ac",
    "tier": "B",
    "address": "Revoluční 1003/3",
    "web": "www.epicprague.com",
    "bezbar": false,
    "source": "IPR Praha – ÚAP"
   }
  },
  {
   "type": "Feature",
   "geometry": {
    "type": "Point",
    "coordinates": [
     14.397695,
     50.08921
    ]
   },
   "properties": {
    "id": "ipr-kultzar-481",
    "name": "Salmovský palác",
    "subtype": "muzeum",
    "typ_uap": "05_07",
    "cooling": "ac",
    "tier": "A",
    "address": "Hradčanské náměstí 186/1",
    "web": "www.ngprague.cz",
    "bezbar": true,
    "source": "IPR Praha – ÚAP"
   }
  },
  {
   "type": "Feature",
   "geometry": {
    "type": "Point",
    "coordinates": [
     14.402129,
     50.088171
    ]
   },
   "properties": {
    "id": "ipr-kultzar-559",
    "name": "Sál Bohuslava Martinů",
    "subtype": "koncertní sál",
    "typ_uap": "05_04",
    "cooling": "ac",
    "tier": "A",
    "address": "Malostranské náměstí 258/13",
    "web": "www.hamu.cz/",
    "bezbar": false,
    "source": "IPR Praha – ÚAP"
   }
  },
  {
   "type": "Feature",
   "geometry": {
    "type": "Point",
    "coordinates": [
     14.421865,
     50.087764
    ]
   },
   "properties": {
    "id": "ipr-kultzar-304",
    "name": "Dům U kamenného zvonu",
    "subtype": "muzeum",
    "typ_uap": "05_07",
    "cooling": "ac",
    "tier": "A",
    "address": "Staroměstské náměstí 605/13",
    "web": "www.ghmp.cz/dum-u-kamenneho-zvonu/",
    "bezbar": false,
    "source": "IPR Praha – ÚAP"
   }
  },
  {
   "type": "Feature",
   "geometry": {
    "type": "Point",
    "coordinates": [
     14.403999,
     50.073668
    ]
   },
   "properties": {
    "id": "ipr-kultzar-645",
    "name": "Portheimka – Galerie D",
    "subtype": "galerie",
    "typ_uap": "05_08",
    "cooling": "ac",
    "tier": "A",
    "address": "Štefánikova 68/12",
    "web": "https://www.praha5.cz/kultura-a-poradani-akci/portheimka-galerie-d/",
    "bezbar": false,
    "source": "IPR Praha – ÚAP"
   }
  },
  {
   "type": "Feature",
   "geometry": {
    "type": "Point",
    "coordinates": [
     14.416965,
     50.080499
    ]
   },
   "properties": {
    "id": "ipr-kultzar-52",
    "name": "Groove Bar",
    "subtype": "kulturní dům",
    "typ_uap": "05_03",
    "cooling": "ac",
    "tier": "B",
    "address": "Voršilská 142/6",
    "web": "groovebar.cz/cs/",
    "bezbar": false,
    "source": "IPR Praha – ÚAP"
   }
  },
  {
   "type": "Feature",
   "geometry": {
    "type": "Point",
    "coordinates": [
     14.4457,
     50.085588
    ]
   },
   "properties": {
    "id": "ipr-kultzar-633",
    "name": "POLAGRAPH",
    "subtype": "galerie",
    "typ_uap": "05_08",
    "cooling": "ac",
    "tier": "A",
    "address": "Husinecká 948/14",
    "web": "www.polagraph.cz",
    "bezbar": false,
    "source": "IPR Praha – ÚAP"
   }
  },
  {
   "type": "Feature",
   "geometry": {
    "type": "Point",
    "coordinates": [
     14.417558,
     50.083072
    ]
   },
   "properties": {
    "id": "ipr-kultzar-438",
    "name": "Kino Ponrepo",
    "subtype": "kino",
    "typ_uap": "05_02",
    "cooling": "ac",
    "tier": "A",
    "address": "Bartolomějská 291/11",
    "web": "www.nfa.cz/cz/kino-ponrepo/cykly/",
    "bezbar": false,
    "source": "IPR Praha – ÚAP"
   }
  },
  {
   "type": "Feature",
   "geometry": {
    "type": "Point",
    "coordinates": [
     14.401994,
     50.087263
    ]
   },
   "properties": {
    "id": "ipr-kultzar-382",
    "name": "Americké centrum Praha",
    "subtype": "kulturní institut",
    "typ_uap": "05_09",
    "cooling": "ac",
    "tier": "A",
    "address": "Tržiště 366/13",
    "web": "www.americkecentrum.cz/",
    "bezbar": false,
    "source": "IPR Praha – ÚAP"
   }
  },
  {
   "type": "Feature",
   "geometry": {
    "type": "Point",
    "coordinates": [
     14.459799,
     50.072391
    ]
   },
   "properties": {
    "id": "ipr-kultzar-258",
    "name": "Divadelní studio Neklid",
    "subtype": "divadlo",
    "typ_uap": "05_01",
    "cooling": "ac",
    "tier": "A",
    "address": "Ruská 827/60",
    "web": "www.divadelnistudioneklid.cz",
    "bezbar": true,
    "source": "IPR Praha – ÚAP"
   }
  },
  {
   "type": "Feature",
   "geometry": {
    "type": "Point",
    "coordinates": [
     14.511067,
     50.110416
    ]
   },
   "properties": {
    "id": "ipr-kultzar-341",
    "name": "Pragovka Gallery",
    "subtype": "galerie",
    "typ_uap": "05_08",
    "cooling": "ac",
    "tier": "A",
    "address": "Kolbenova 923/34a",
    "web": "www.pragovka.com",
    "bezbar": false,
    "source": "IPR Praha – ÚAP"
   }
  },
  {
   "type": "Feature",
   "geometry": {
    "type": "Point",
    "coordinates": [
     14.430556,
     50.07918
    ]
   },
   "properties": {
    "id": "ipr-kultzar-483",
    "name": "Historická budova Národního muzea",
    "subtype": "muzeum",
    "typ_uap": "05_07",
    "cooling": "ac",
    "tier": "A",
    "address": "Václavské náměstí 1700/68",
    "web": "www.nm.cz",
    "bezbar": true,
    "source": "IPR Praha – ÚAP"
   }
  },
  {
   "type": "Feature",
   "geometry": {
    "type": "Point",
    "coordinates": [
     14.424277,
     50.079343
    ]
   },
   "properties": {
    "id": "ipr-kultzar-84",
    "name": "Leica Gallery Prague",
    "subtype": "galerie",
    "typ_uap": "05_08",
    "cooling": "ac",
    "tier": "A",
    "address": "Školská 693/28",
    "web": "www.lgp.cz",
    "bezbar": false,
    "source": "IPR Praha – ÚAP"
   }
  },
  {
   "type": "Feature",
   "geometry": {
    "type": "Point",
    "coordinates": [
     14.42213,
     50.082479
    ]
   },
   "properties": {
    "id": "ipr-kultzar-170",
    "name": "Divadlo Bez zábradlí",
    "subtype": "divadlo",
    "typ_uap": "05_01",
    "cooling": "ac",
    "tier": "A",
    "address": "Jungmannova 36/31",
    "web": "www.bezzabradli.cz",
    "bezbar": false,
    "source": "IPR Praha – ÚAP"
   }
  },
  {
   "type": "Feature",
   "geometry": {
    "type": "Point",
    "coordinates": [
     14.42319,
     50.088247
    ]
   },
   "properties": {
    "id": "ipr-kultzar-192",
    "name": "Dům U Zlatého prstenu",
    "subtype": "muzeum",
    "typ_uap": "05_07",
    "cooling": "ac",
    "tier": "A",
    "address": "Týnská 630/6",
    "web": "www.muzeumprahy.cz/dum-u-zlateho-prstenu",
    "bezbar": true,
    "source": "IPR Praha – ÚAP"
   }
  },
  {
   "type": "Feature",
   "geometry": {
    "type": "Point",
    "coordinates": [
     14.448382,
     50.071437
    ]
   },
   "properties": {
    "id": "ipr-kultzar-276",
    "name": "Café v lese",
    "subtype": "literární kavárna",
    "typ_uap": "05_10",
    "cooling": "ac",
    "tier": "B",
    "address": "Krymská 273/12",
    "web": "https://cafevlese.cz/",
    "bezbar": false,
    "source": "IPR Praha – ÚAP"
   }
  },
  {
   "type": "Feature",
   "geometry": {
    "type": "Point",
    "coordinates": [
     14.415357,
     50.072966
    ]
   },
   "properties": {
    "id": "ipr-kultzar-513",
    "name": "Galerie NIKA - malá galerie Umprum",
    "subtype": "galerie",
    "typ_uap": "05_08",
    "cooling": "ac",
    "tier": "A",
    "address": null,
    "web": "www.umprum.cz/web/cs/galerie-nika",
    "bezbar": true,
    "source": "IPR Praha – ÚAP"
   }
  },
  {
   "type": "Feature",
   "geometry": {
    "type": "Point",
    "coordinates": [
     14.412058,
     50.037897
    ]
   },
   "properties": {
    "id": "ipr-kultzar-101",
    "name": "Divadlo Duncan Centre",
    "subtype": "divadlo",
    "typ_uap": "05_01",
    "cooling": "ac",
    "tier": "A",
    "address": "Branická 145/41",
    "web": "www.duncancentre.cz/",
    "bezbar": false,
    "source": "IPR Praha – ÚAP"
   }
  },
  {
   "type": "Feature",
   "geometry": {
    "type": "Point",
    "coordinates": [
     14.494907,
     50.038227
    ]
   },
   "properties": {
    "id": "ipr-kultzar-473",
    "name": "Mercedes Forum Praha",
    "subtype": "multifunkční sál",
    "typ_uap": "05_05",
    "cooling": "ac",
    "tier": "A",
    "address": "Daimlerova 2296/2",
    "web": "www.mercedesforum.cz/",
    "bezbar": false,
    "source": "IPR Praha – ÚAP"
   }
  },
  {
   "type": "Feature",
   "geometry": {
    "type": "Point",
    "coordinates": [
     14.388495,
     50.067313
    ]
   },
   "properties": {
    "id": "ipr-kultzar-646",
    "name": "Winternitzova vila",
    "subtype": "muzeum",
    "typ_uap": "05_07",
    "cooling": "ac",
    "tier": "A",
    "address": "Na Cihlářce 2092/10",
    "web": "https://www.loosovavila.cz",
    "bezbar": false,
    "source": "IPR Praha – ÚAP"
   }
  },
  {
   "type": "Feature",
   "geometry": {
    "type": "Point",
    "coordinates": [
     14.442274,
     50.063781
    ]
   },
   "properties": {
    "id": "ipr-kultzar-69",
    "name": "Galerie eS",
    "subtype": "galerie",
    "typ_uap": "05_08",
    "cooling": "ac",
    "tier": "A",
    "address": "Nuselská 297/5",
    "web": "www.esgalerie.cz",
    "bezbar": true,
    "source": "IPR Praha – ÚAP"
   }
  },
  {
   "type": "Feature",
   "geometry": {
    "type": "Point",
    "coordinates": [
     14.400838,
     50.088489
    ]
   },
   "properties": {
    "id": "ipr-kultzar-379",
    "name": "Rumunský kulturní institut v Praze",
    "subtype": "kulturní institut",
    "typ_uap": "05_09",
    "cooling": "ac",
    "tier": "A",
    "address": "Nerudova 256/5",
    "web": "www.icr.ro/",
    "bezbar": false,
    "source": "IPR Praha – ÚAP"
   }
  },
  {
   "type": "Feature",
   "geometry": {
    "type": "Point",
    "coordinates": [
     14.442283,
     50.072324
    ]
   },
   "properties": {
    "id": "ipr-kultzar-320",
    "name": "Galerie Gema",
    "subtype": "galerie",
    "typ_uap": "05_08",
    "cooling": "ac",
    "tier": "A",
    "address": "Máchova 439/27",
    "web": "www.gemagalerie.cz",
    "bezbar": false,
    "source": "IPR Praha – ÚAP"
   }
  },
  {
   "type": "Feature",
   "geometry": {
    "type": "Point",
    "coordinates": [
     14.389667,
     50.086708
    ]
   },
   "properties": {
    "id": "ipr-kultzar-115",
    "name": "Galerie MIRO",
    "subtype": "galerie",
    "typ_uap": "05_08",
    "cooling": "ac",
    "tier": "A",
    "address": "Strahovské nádvoří 132/1",
    "web": "www.galeriemiro.cz",
    "bezbar": false,
    "source": "IPR Praha – ÚAP"
   }
  },
  {
   "type": "Feature",
   "geometry": {
    "type": "Point",
    "coordinates": [
     14.446926,
     50.080449
    ]
   },
   "properties": {
    "id": "ipr-kultzar-97",
    "name": "Venuše ve Švehlovce",
    "subtype": "divadlo",
    "typ_uap": "05_01",
    "cooling": "ac",
    "tier": "A",
    "address": "Slavíkova 1499/22",
    "web": "www.venuse-ve-svehlovce.cz",
    "bezbar": false,
    "source": "IPR Praha – ÚAP"
   }
  },
  {
   "type": "Feature",
   "geometry": {
    "type": "Point",
    "coordinates": [
     14.42213,
     50.082479
    ]
   },
   "properties": {
    "id": "ipr-kultzar-108",
    "name": "Galerie kritiků",
    "subtype": "galerie",
    "typ_uap": "05_08",
    "cooling": "ac",
    "tier": "A",
    "address": "Jungmannova 36/31",
    "web": "www.galeriekritiku.cz",
    "bezbar": false,
    "source": "IPR Praha – ÚAP"
   }
  },
  {
   "type": "Feature",
   "geometry": {
    "type": "Point",
    "coordinates": [
     14.418737,
     50.084361
    ]
   },
   "properties": {
    "id": "ipr-kultzar-59",
    "name": "Jazz Republic",
    "subtype": "kulturní dům",
    "typ_uap": "05_03",
    "cooling": "ac",
    "tier": "B",
    "address": "Jilská 361/1",
    "web": "www.jazzrepublic.cz/",
    "bezbar": false,
    "source": "IPR Praha – ÚAP"
   }
  },
  {
   "type": "Feature",
   "geometry": {
    "type": "Point",
    "coordinates": [
     14.414191,
     50.075447
    ]
   },
   "properties": {
    "id": "ipr-kultzar-127",
    "name": "Galerie Tančící dům",
    "subtype": "galerie",
    "typ_uap": "05_08",
    "cooling": "ac",
    "tier": "A",
    "address": "Jiráskovo náměstí 1981/6",
    "web": "www.galerietancicidum.cz/",
    "bezbar": false,
    "source": "IPR Praha – ÚAP"
   }
  },
  {
   "type": "Feature",
   "geometry": {
    "type": "Point",
    "coordinates": [
     14.423207,
     50.089413
    ]
   },
   "properties": {
    "id": "ipr-kultzar-329",
    "name": "M11 Lounge",
    "subtype": "kulturní dům",
    "typ_uap": "05_03",
    "cooling": "ac",
    "tier": "B",
    "address": "Masná 705/1",
    "web": "www.m1lounge.com",
    "bezbar": false,
    "source": "IPR Praha – ÚAP"
   }
  },
  {
   "type": "Feature",
   "geometry": {
    "type": "Point",
    "coordinates": [
     14.446164,
     50.08249
    ]
   },
   "properties": {
    "id": "ipr-kultzar-630",
    "name": "Hidden Gallery",
    "subtype": "galerie",
    "typ_uap": "05_08",
    "cooling": "ac",
    "tier": "A",
    "address": "Bořivojova 536/106",
    "web": "hiddengallery.cz",
    "bezbar": false,
    "source": "IPR Praha – ÚAP"
   }
  },
  {
   "type": "Feature",
   "geometry": {
    "type": "Point",
    "coordinates": [
     14.422187,
     50.08
    ]
   },
   "properties": {
    "id": "ipr-kultzar-44",
    "name": "Fotograf Gallery",
    "subtype": "galerie",
    "typ_uap": "05_08",
    "cooling": "ac",
    "tier": "A",
    "address": "Jungmannova 19/7",
    "web": "www.fotografgallery.cz",
    "bezbar": true,
    "source": "IPR Praha – ÚAP"
   }
  },
  {
   "type": "Feature",
   "geometry": {
    "type": "Point",
    "coordinates": [
     14.414306,
     50.081274
    ]
   },
   "properties": {
    "id": "ipr-kultzar-11",
    "name": "Nová scéna ND",
    "subtype": "divadlo",
    "typ_uap": "05_01",
    "cooling": "ac",
    "tier": "A",
    "address": "Národní 1393/4",
    "web": "www.narodni-divadlo.cz/cs/nova-scena",
    "bezbar": false,
    "source": "IPR Praha – ÚAP"
   }
  },
  {
   "type": "Feature",
   "geometry": {
    "type": "Point",
    "coordinates": [
     14.425195,
     50.078827
    ]
   },
   "properties": {
    "id": "ipr-kultzar-401",
    "name": "Kino 35",
    "subtype": "kino",
    "typ_uap": "05_02",
    "cooling": "ac",
    "tier": "A",
    "address": "Štěpánská 644/35",
    "web": "kino35.ifp.cz",
    "bezbar": true,
    "source": "IPR Praha – ÚAP"
   }
  },
  {
   "type": "Feature",
   "geometry": {
    "type": "Point",
    "coordinates": [
     14.424005,
     50.102709
    ]
   },
   "properties": {
    "id": "ipr-kultzar-659",
    "name": "SKLAD M1",
    "subtype": "muzeum",
    "typ_uap": "05_07",
    "cooling": "ac",
    "tier": "A",
    "address": "U Akademi 172/4",
    "web": "www.facebook.com/skladM1galerie",
    "bezbar": false,
    "source": "IPR Praha – ÚAP"
   }
  },
  {
   "type": "Feature",
   "geometry": {
    "type": "Point",
    "coordinates": [
     14.4942,
     50.032968
    ]
   },
   "properties": {
    "id": "ipr-kultzar-153",
    "name": "Galerie cesty ke světlu Zdeňka Hajného",
    "subtype": "galerie",
    "typ_uap": "05_08",
    "cooling": "ac",
    "tier": "A",
    "address": "Zakouřilova 955/9",
    "web": "www.zdenekhajny.com",
    "bezbar": false,
    "source": "IPR Praha – ÚAP"
   }
  },
  {
   "type": "Feature",
   "geometry": {
    "type": "Point",
    "coordinates": [
     14.39618,
     49.975791
    ]
   },
   "properties": {
    "id": "ipr-kultzar-507",
    "name": "Galerie Zbraslav",
    "subtype": "galerie",
    "typ_uap": "05_08",
    "cooling": "ac",
    "tier": "A",
    "address": "U Malé řeky 3",
    "web": "www.facebook.com/galeriezbraslav/",
    "bezbar": false,
    "source": "IPR Praha – ÚAP"
   }
  },
  {
   "type": "Feature",
   "geometry": {
    "type": "Point",
    "coordinates": [
     14.45344,
     50.087693
    ]
   },
   "properties": {
    "id": "ipr-kultzar-279",
    "name": "Strom Club",
    "subtype": "kulturní dům",
    "typ_uap": "05_03",
    "cooling": "ac",
    "tier": "B",
    "address": "Tachovské náměstí 290/5",
    "web": "stormclub.cz",
    "bezbar": false,
    "source": "IPR Praha – ÚAP"
   }
  },
  {
   "type": "Feature",
   "geometry": {
    "type": "Point",
    "coordinates": [
     14.389667,
     50.086708
    ]
   },
   "properties": {
    "id": "ipr-kultzar-214",
    "name": "Památník národního písemnictví / Sídlo PNP",
    "subtype": "muzeum",
    "typ_uap": "05_07",
    "cooling": "ac",
    "tier": "A",
    "address": "Strahovské nádvoří 132/1",
    "web": "www.pamatniknarodnihopisemnictvi.cz",
    "bezbar": false,
    "source": "IPR Praha – ÚAP"
   }
  },
  {
   "type": "Feature",
   "geometry": {
    "type": "Point",
    "coordinates": [
     14.426507,
     50.081604
    ]
   },
   "properties": {
    "id": "ipr-kultzar-9",
    "name": "Divadlo Rokoko",
    "subtype": "divadlo",
    "typ_uap": "05_01",
    "cooling": "ac",
    "tier": "A",
    "address": "Václavské náměstí 794/38",
    "web": "www.mestskadivadlaprazska.cz/rokoko/divadlo-rokoko/",
    "bezbar": false,
    "source": "IPR Praha – ÚAP"
   }
  },
  {
   "type": "Feature",
   "geometry": {
    "type": "Point",
    "coordinates": [
     14.43644,
     50.095328
    ]
   },
   "properties": {
    "id": "ipr-kultzar-664",
    "name": "Fuchs2",
    "subtype": "kulturní dům",
    "typ_uap": "05_03",
    "cooling": "ac",
    "tier": "B",
    "address": "Ostrov Štvanice 1125",
    "web": "www.fuchs2.cz",
    "bezbar": false,
    "source": "IPR Praha – ÚAP"
   }
  },
  {
   "type": "Feature",
   "geometry": {
    "type": "Point",
    "coordinates": [
     14.415209,
     50.090172
    ]
   },
   "properties": {
    "id": "ipr-kultzar-565",
    "name": "Česká filharmonie",
    "subtype": "koncertní sál",
    "typ_uap": "05_04",
    "cooling": "ac",
    "tier": "A",
    "address": "Alšovo nábřeží 79/12",
    "web": "www.rudolfinum.cz/",
    "bezbar": false,
    "source": "IPR Praha – ÚAP"
   }
  },
  {
   "type": "Feature",
   "geometry": {
    "type": "Point",
    "coordinates": [
     14.428247,
     50.08762
    ]
   },
   "properties": {
    "id": "ipr-kultzar-566",
    "name": "Obecní dům",
    "subtype": "koncertní sál",
    "typ_uap": "05_04",
    "cooling": "ac",
    "tier": "A",
    "address": "náměstí Republiky 1090/5",
    "web": "www.obecnidum.cz",
    "bezbar": false,
    "source": "IPR Praha – ÚAP"
   }
  },
  {
   "type": "Feature",
   "geometry": {
    "type": "Point",
    "coordinates": [
     14.449609,
     50.082123
    ]
   },
   "properties": {
    "id": "ipr-kultzar-85",
    "name": "NAU gallery",
    "subtype": "galerie",
    "typ_uap": "05_08",
    "cooling": "ac",
    "tier": "A",
    "address": "Kubelíkova 1089/22",
    "web": "www.naugallery.cz",
    "bezbar": false,
    "source": "IPR Praha – ÚAP"
   }
  },
  {
   "type": "Feature",
   "geometry": {
    "type": "Point",
    "coordinates": [
     14.470902,
     50.067549
    ]
   },
   "properties": {
    "id": "ipr-kultzar-592",
    "name": "EDEN Aréna",
    "subtype": "aréna",
    "typ_uap": "05_06",
    "cooling": "ac",
    "tier": "B",
    "address": "U Slavie 1540/2a",
    "web": "www.edenarena.cz",
    "bezbar": true,
    "source": "IPR Praha – ÚAP"
   }
  },
  {
   "type": "Feature",
   "geometry": {
    "type": "Point",
    "coordinates": [
     14.418151,
     50.082234
    ]
   },
   "properties": {
    "id": "ipr-kultzar-281",
    "name": "Vagon",
    "subtype": "kulturní dům",
    "typ_uap": "05_03",
    "cooling": "ac",
    "tier": "B",
    "address": "Národní 961/25",
    "web": "www.vagon.cz/",
    "bezbar": false,
    "source": "IPR Praha – ÚAP"
   }
  },
  {
   "type": "Feature",
   "geometry": {
    "type": "Point",
    "coordinates": [
     14.436055,
     50.095595
    ]
   },
   "properties": {
    "id": "ipr-kultzar-95",
    "name": "Divadlo Vila Štvanice, z. s.",
    "subtype": "divadlo",
    "typ_uap": "05_01",
    "cooling": "ac",
    "tier": "A",
    "address": "Ostrov Štvanice 858",
    "web": "https://vilastvanice.cz",
    "bezbar": false,
    "source": "IPR Praha – ÚAP"
   }
  },
  {
   "type": "Feature",
   "geometry": {
    "type": "Point",
    "coordinates": [
     14.433925,
     50.076977
    ]
   },
   "properties": {
    "id": "ipr-kultzar-259",
    "name": "Divadlo Balbínka",
    "subtype": "divadlo",
    "typ_uap": "05_01",
    "cooling": "ac",
    "tier": "A",
    "address": "Balbínova 323/6",
    "web": "www.balbinka.cz/",
    "bezbar": false,
    "source": "IPR Praha – ÚAP"
   }
  },
  {
   "type": "Feature",
   "geometry": {
    "type": "Point",
    "coordinates": [
     14.414607,
     50.08597
    ]
   },
   "properties": {
    "id": "ipr-kultzar-302",
    "name": "Colloredo-Mansfeldský palác",
    "subtype": "muzeum",
    "typ_uap": "05_07",
    "cooling": "ac",
    "tier": "A",
    "address": "Karlova 189/2",
    "web": "www.ghmp.cz",
    "bezbar": false,
    "source": "IPR Praha – ÚAP"
   }
  },
  {
   "type": "Feature",
   "geometry": {
    "type": "Point",
    "coordinates": [
     14.437201,
     50.072138
    ]
   },
   "properties": {
    "id": "ipr-kultzar-172",
    "name": "Divadlo D21",
    "subtype": "divadlo",
    "typ_uap": "05_01",
    "cooling": "ac",
    "tier": "A",
    "address": "Záhřebská 468/21",
    "web": "www.divadlod21.cz",
    "bezbar": false,
    "source": "IPR Praha – ÚAP"
   }
  },
  {
   "type": "Feature",
   "geometry": {
    "type": "Point",
    "coordinates": [
     14.422857,
     50.062941
    ]
   },
   "properties": {
    "id": "ipr-kultzar-30",
    "name": "Galerie Vyšehrad",
    "subtype": "galerie",
    "typ_uap": "05_08",
    "cooling": "ac",
    "tier": "A",
    "address": "V pevnosti 159/5b",
    "web": "www.praha-vysehrad.cz",
    "bezbar": false,
    "source": "IPR Praha – ÚAP"
   }
  },
  {
   "type": "Feature",
   "geometry": {
    "type": "Point",
    "coordinates": [
     14.407805,
     50.074116
    ]
   },
   "properties": {
    "id": "ipr-kultzar-288",
    "name": "Futurum music Bar",
    "subtype": "kulturní dům",
    "typ_uap": "05_03",
    "cooling": "ac",
    "tier": "B",
    "address": "Zborovská 82/7",
    "web": "futurum.musicbar.cz/",
    "bezbar": false,
    "source": "IPR Praha – ÚAP"
   }
  },
  {
   "type": "Feature",
   "geometry": {
    "type": "Point",
    "coordinates": [
     14.430015,
     50.085085
    ]
   },
   "properties": {
    "id": "ipr-kultzar-21",
    "name": "Divadlo Ve věži",
    "subtype": "divadlo",
    "typ_uap": "05_01",
    "cooling": "ac",
    "tier": "A",
    "address": "Jindřišská 2122/33",
    "web": "www.divadlovevezi.cz/",
    "bezbar": true,
    "source": "IPR Praha – ÚAP"
   }
  },
  {
   "type": "Feature",
   "geometry": {
    "type": "Point",
    "coordinates": [
     14.443146,
     50.084491
    ]
   },
   "properties": {
    "id": "ipr-kultzar-622",
    "name": "Kino Přítomnost",
    "subtype": "kino",
    "typ_uap": "05_02",
    "cooling": "ac",
    "tier": "A",
    "address": "Siwiecova 1800/1",
    "web": "www.kinopritomnost.cz/",
    "bezbar": false,
    "source": "IPR Praha – ÚAP"
   }
  },
  {
   "type": "Feature",
   "geometry": {
    "type": "Point",
    "coordinates": [
     14.413452,
     50.01233
    ]
   },
   "properties": {
    "id": "ipr-kultzar-3",
    "name": "Divadlo Na Cikorce",
    "subtype": "divadlo",
    "typ_uap": "05_01",
    "cooling": "ac",
    "tier": "A",
    "address": "Herrmannova 2016/24",
    "web": "https://www.ddmm.cz/divadlo-na-cikorce",
    "bezbar": true,
    "source": "IPR Praha – ÚAP"
   }
  },
  {
   "type": "Feature",
   "geometry": {
    "type": "Point",
    "coordinates": [
     14.430362,
     50.08816
    ]
   },
   "properties": {
    "id": "ipr-kultzar-324",
    "name": "Nebe Music Bar",
    "subtype": "kulturní dům",
    "typ_uap": "05_03",
    "cooling": "ac",
    "tier": "B",
    "address": "V Celnici 1031/4",
    "web": "www.nebepraha.cz/cz/celnice/",
    "bezbar": false,
    "source": "IPR Praha – ÚAP"
   }
  },
  {
   "type": "Feature",
   "geometry": {
    "type": "Point",
    "coordinates": [
     14.288632,
     50.054322
    ]
   },
   "properties": {
    "id": "ipr-kultzar-398",
    "name": "Cinema City Zličín",
    "subtype": "kino",
    "typ_uap": "05_02",
    "cooling": "ac",
    "tier": "A",
    "address": "Řevnická 121/1",
    "web": "https://www.cinemacity.cz/cinemas/zlicin",
    "bezbar": true,
    "source": "IPR Praha – ÚAP"
   }
  },
  {
   "type": "Feature",
   "geometry": {
    "type": "Point",
    "coordinates": [
     14.408895,
     50.091436
    ]
   },
   "properties": {
    "id": "ipr-kultzar-249",
    "name": "Muzeum Kouzlo starých časů",
    "subtype": "muzeum",
    "typ_uap": "05_07",
    "cooling": "ac",
    "tier": "A",
    "address": "Valdštejnská 150/4",
    "web": "www.kouzlostarychcasu.cz",
    "bezbar": false,
    "source": "IPR Praha – ÚAP"
   }
  },
  {
   "type": "Feature",
   "geometry": {
    "type": "Point",
    "coordinates": [
     14.444773,
     50.086419
    ]
   },
   "properties": {
    "id": "ipr-kultzar-635",
    "name": "Prostor 39",
    "subtype": "multifunkční sál",
    "typ_uap": "05_05",
    "cooling": "ac",
    "tier": "A",
    "address": "Řehořova 33/39",
    "web": null,
    "bezbar": false,
    "source": "IPR Praha – ÚAP"
   }
  },
  {
   "type": "Feature",
   "geometry": {
    "type": "Point",
    "coordinates": [
     14.395298,
     50.070402
    ]
   },
   "properties": {
    "id": "ipr-kultzar-255",
    "name": "Vila Bertramka",
    "subtype": "galerie",
    "typ_uap": "05_08",
    "cooling": "ac",
    "tier": "A",
    "address": "U mrázovky 169/2",
    "web": "www.bertramka.eu",
    "bezbar": false,
    "source": "IPR Praha – ÚAP"
   }
  },
  {
   "type": "Feature",
   "geometry": {
    "type": "Point",
    "coordinates": [
     14.428629,
     50.080145
    ]
   },
   "properties": {
    "id": "ipr-kultzar-388",
    "name": "Nebe Music Bar",
    "subtype": "kulturní dům",
    "typ_uap": "05_03",
    "cooling": "ac",
    "tier": "B",
    "address": "Václavské náměstí 802/56",
    "web": "www.nebepraha.cz/vaclavske-namesti",
    "bezbar": false,
    "source": "IPR Praha – ÚAP"
   }
  },
  {
   "type": "Feature",
   "geometry": {
    "type": "Point",
    "coordinates": [
     14.42732,
     50.079272
    ]
   },
   "properties": {
    "id": "ipr-kultzar-165",
    "name": "Činoherní klub",
    "subtype": "divadlo",
    "typ_uap": "05_01",
    "cooling": "ac",
    "tier": "A",
    "address": "Ve Smečkách 594/26",
    "web": "www.cinoherniklub.cz",
    "bezbar": false,
    "source": "IPR Praha – ÚAP"
   }
  },
  {
   "type": "Feature",
   "geometry": {
    "type": "Point",
    "coordinates": [
     14.413206,
     50.08173
    ]
   },
   "properties": {
    "id": "ipr-kultzar-56",
    "name": "Klub Famu",
    "subtype": "kulturní dům",
    "typ_uap": "05_03",
    "cooling": "ac",
    "tier": "B",
    "address": "Smetanovo nábřeží 1012/2",
    "web": "www.facebook.com/klubfamu2017/",
    "bezbar": false,
    "source": "IPR Praha – ÚAP"
   }
  },
  {
   "type": "Feature",
   "geometry": {
    "type": "Point",
    "coordinates": [
     14.416314,
     50.089929
    ]
   },
   "properties": {
    "id": "ipr-kultzar-151",
    "name": "Uměleckoprůmyslové muzeum v Praze",
    "subtype": "muzeum",
    "typ_uap": "05_07",
    "cooling": "ac",
    "tier": "A",
    "address": "17. listopadu 2/2",
    "web": "www.upm.cz",
    "bezbar": true,
    "source": "IPR Praha – ÚAP"
   }
  },
  {
   "type": "Feature",
   "geometry": {
    "type": "Point",
    "coordinates": [
     14.448916,
     50.082258
    ]
   },
   "properties": {
    "id": "ipr-kultzar-296",
    "name": "Palác Akropolis",
    "subtype": "multifunkční sál",
    "typ_uap": "05_05",
    "cooling": "ac",
    "tier": "A",
    "address": "Kubelíkova 1548/27",
    "web": "www.palacakropolis.cz",
    "bezbar": false,
    "source": "IPR Praha – ÚAP"
   }
  },
  {
   "type": "Feature",
   "geometry": {
    "type": "Point",
    "coordinates": [
     14.404541,
     50.084946
    ]
   },
   "properties": {
    "id": "ipr-kultzar-209",
    "name": "České muzeum hudby",
    "subtype": "muzeum",
    "typ_uap": "05_07",
    "cooling": "ac",
    "tier": "A",
    "address": "Karmelitská 388/2",
    "web": "www.nm.cz/Ceske-muzeum-hudby/Oddeleni-CMH/",
    "bezbar": true,
    "source": "IPR Praha – ÚAP"
   }
  },
  {
   "type": "Feature",
   "geometry": {
    "type": "Point",
    "coordinates": [
     14.414041,
     50.080077
    ]
   },
   "properties": {
    "id": "ipr-kultzar-74",
    "name": "Galerie Vltavín",
    "subtype": "galerie",
    "typ_uap": "05_08",
    "cooling": "ac",
    "tier": "A",
    "address": "Masarykovo nábřeží 1648/36",
    "web": "www.galerie-vltavin.cz",
    "bezbar": false,
    "source": "IPR Praha – ÚAP"
   }
  },
  {
   "type": "Feature",
   "geometry": {
    "type": "Point",
    "coordinates": [
     14.448065,
     50.083659
    ]
   },
   "properties": {
    "id": "ipr-kultzar-620",
    "name": "Pracovna",
    "subtype": "galerie",
    "typ_uap": "05_08",
    "cooling": "ac",
    "tier": "A",
    "address": "Vlkova 628/36",
    "web": "www.pracovna.cz",
    "bezbar": false,
    "source": "IPR Praha – ÚAP"
   }
  },
  {
   "type": "Feature",
   "geometry": {
    "type": "Point",
    "coordinates": [
     14.38891,
     50.087131
    ]
   },
   "properties": {
    "id": "ipr-kultzar-138",
    "name": "Muzeum miniatur v Praze",
    "subtype": "muzeum",
    "typ_uap": "05_07",
    "cooling": "ac",
    "tier": "A",
    "address": "Strahovské nádvoří 302/11",
    "web": "www.muzeumminiatur.cz",
    "bezbar": false,
    "source": "IPR Praha – ÚAP"
   }
  },
  {
   "type": "Feature",
   "geometry": {
    "type": "Point",
    "coordinates": [
     14.416423,
     50.077766
    ]
   },
   "properties": {
    "id": "ipr-kultzar-34",
    "name": "Ars Diva Galerie",
    "subtype": "galerie",
    "typ_uap": "05_08",
    "cooling": "ac",
    "tier": "A",
    "address": "Pštrossova 187/2",
    "web": "www.arsdiva.cz",
    "bezbar": false,
    "source": "IPR Praha – ÚAP"
   }
  },
  {
   "type": "Feature",
   "geometry": {
    "type": "Point",
    "coordinates": [
     14.407325,
     50.086924
    ]
   },
   "properties": {
    "id": "ipr-kultzar-245",
    "name": "Muzeum Karla Zemana",
    "subtype": "muzeum",
    "typ_uap": "05_07",
    "cooling": "ac",
    "tier": "A",
    "address": "Saská 520/3",
    "web": "www.muzeumkarlazemana.cz",
    "bezbar": true,
    "source": "IPR Praha – ÚAP"
   }
  },
  {
   "type": "Feature",
   "geometry": {
    "type": "Point",
    "coordinates": [
     14.412938,
     50.085446
    ]
   },
   "properties": {
    "id": "ipr-kultzar-205",
    "name": "Muzeum Bedřicha Smetany",
    "subtype": "muzeum",
    "typ_uap": "05_07",
    "cooling": "ac",
    "tier": "A",
    "address": "Novotného lávka 201/1",
    "web": "www.nm.cz/Hlavni-strana/Navstivte-nas/Muzeum-Bedricha-Smetany.html",
    "bezbar": false,
    "source": "IPR Praha – ÚAP"
   }
  },
  {
   "type": "Feature",
   "geometry": {
    "type": "Point",
    "coordinates": [
     14.414936,
     50.077837
    ]
   },
   "properties": {
    "id": "ipr-kultzar-67",
    "name": "Galerie CZECHDESIGN",
    "subtype": "galerie",
    "typ_uap": "05_08",
    "cooling": "ac",
    "tier": "A",
    "address": "Vojtěšská 244/3",
    "web": "www.czechdesign.cz",
    "bezbar": false,
    "source": "IPR Praha – ÚAP"
   }
  },
  {
   "type": "Feature",
   "geometry": {
    "type": "Point",
    "coordinates": [
     14.421645,
     50.089842
    ]
   },
   "properties": {
    "id": "ipr-kultzar-325",
    "name": "Cafe 80's",
    "subtype": "kulturní dům",
    "typ_uap": "05_03",
    "cooling": "ac",
    "tier": "B",
    "address": "V Kolkovně 909/6",
    "web": "www.cafe80.cz",
    "bezbar": false,
    "source": "IPR Praha – ÚAP"
   }
  },
  {
   "type": "Feature",
   "geometry": {
    "type": "Point",
    "coordinates": [
     14.428629,
     50.080145
    ]
   },
   "properties": {
    "id": "ipr-kultzar-90",
    "name": "Studio DVA",
    "subtype": "divadlo",
    "typ_uap": "05_01",
    "cooling": "ac",
    "tier": "A",
    "address": "Václavské náměstí 802/56",
    "web": "www.studiodva.cz",
    "bezbar": false,
    "source": "IPR Praha – ÚAP"
   }
  },
  {
   "type": "Feature",
   "geometry": {
    "type": "Point",
    "coordinates": [
     14.457238,
     50.069534
    ]
   },
   "properties": {
    "id": "ipr-kultzar-673",
    "name": "Alfa ateliér",
    "subtype": "galerie",
    "typ_uap": "05_08",
    "cooling": "ac",
    "tier": "A",
    "address": "Holandská 755/19",
    "web": "www.alfaatelier.cz",
    "bezbar": false,
    "source": "IPR Praha – ÚAP"
   }
  },
  {
   "type": "Feature",
   "geometry": {
    "type": "Point",
    "coordinates": [
     14.425534,
     50.081974
    ]
   },
   "properties": {
    "id": "ipr-kultzar-443",
    "name": "Světozor",
    "subtype": "kino",
    "typ_uap": "05_02",
    "cooling": "ac",
    "tier": "A",
    "address": "Vodičkova 791/41",
    "web": "www.kinosvetozor.cz",
    "bezbar": false,
    "source": "IPR Praha – ÚAP"
   }
  },
  {
   "type": "Feature",
   "geometry": {
    "type": "Point",
    "coordinates": [
     14.422629,
     50.08811
    ]
   },
   "properties": {
    "id": "ipr-kultzar-387",
    "name": "Jazz & Blues Club Ungelt",
    "subtype": "kulturní dům",
    "typ_uap": "05_03",
    "cooling": "ac",
    "tier": "B",
    "address": "Týnská ulička 628/2",
    "web": "jazzungelt.cz/",
    "bezbar": false,
    "source": "IPR Praha – ÚAP"
   }
  },
  {
   "type": "Feature",
   "geometry": {
    "type": "Point",
    "coordinates": [
     14.424491,
     50.068889
    ]
   },
   "properties": {
    "id": "ipr-kultzar-484",
    "name": "Mineralogické muzeum",
    "subtype": "muzeum",
    "typ_uap": "05_07",
    "cooling": "ac",
    "tier": "A",
    "address": "Albertov 2038/6",
    "web": "www.natur.cuni.cz/geologie/mineralogicke-muzeum",
    "bezbar": false,
    "source": "IPR Praha – ÚAP"
   }
  },
  {
   "type": "Feature",
   "geometry": {
    "type": "Point",
    "coordinates": [
     14.457607,
     50.075298
    ]
   },
   "properties": {
    "id": "ipr-kultzar-334",
    "name": "Vinohradský pivovar",
    "subtype": "literární kavárna",
    "typ_uap": "05_10",
    "cooling": "ac",
    "tier": "B",
    "address": "Korunní 2506/106",
    "web": "https://www.vinohradskypivovar.cz/",
    "bezbar": false,
    "source": "IPR Praha – ÚAP"
   }
  },
  {
   "type": "Feature",
   "geometry": {
    "type": "Point",
    "coordinates": [
     14.405302,
     50.090385
    ]
   },
   "properties": {
    "id": "ipr-kultzar-144",
    "name": "Národní pedagogické muzeum a Knihovna J. A. Komenského",
    "subtype": "muzeum",
    "typ_uap": "05_07",
    "cooling": "ac",
    "tier": "A",
    "address": "Valdštejnská 161/20",
    "web": "www.npmk.cz",
    "bezbar": false,
    "source": "IPR Praha – ÚAP"
   }
  },
  {
   "type": "Feature",
   "geometry": {
    "type": "Point",
    "coordinates": [
     14.435505,
     50.099719
    ]
   },
   "properties": {
    "id": "ipr-kultzar-39",
    "name": "Berlínskej model",
    "subtype": "galerie",
    "typ_uap": "05_08",
    "cooling": "ac",
    "tier": "A",
    "address": "Pplk. Sochora 1387/9",
    "web": "www.berlinskejmodel.cz",
    "bezbar": false,
    "source": "IPR Praha – ÚAP"
   }
  },
  {
   "type": "Feature",
   "geometry": {
    "type": "Point",
    "coordinates": [
     14.433943,
     50.08971
    ]
   },
   "properties": {
    "id": "ipr-kultzar-168",
    "name": "Divadlo Archa",
    "subtype": "divadlo",
    "typ_uap": "05_01",
    "cooling": "ac",
    "tier": "A",
    "address": "Na Poříčí 1047/26",
    "web": "www.archatheatre.cz",
    "bezbar": true,
    "source": "IPR Praha – ÚAP"
   }
  },
  {
   "type": "Feature",
   "geometry": {
    "type": "Point",
    "coordinates": [
     14.42867,
     50.087053
    ]
   },
   "properties": {
    "id": "ipr-kultzar-471",
    "name": "Kongresový sál České národní banky",
    "subtype": "multifunkční sál",
    "typ_uap": "05_05",
    "cooling": "ac",
    "tier": "A",
    "address": "Na příkopě 864/28",
    "web": "www.cnb.cz/cs/o_cnb/sidlo_ustredi/kongresove_centrum_cnb/index.html",
    "bezbar": true,
    "source": "IPR Praha – ÚAP"
   }
  },
  {
   "type": "Feature",
   "geometry": {
    "type": "Point",
    "coordinates": [
     14.413974,
     50.085503
    ]
   },
   "properties": {
    "id": "ipr-kultzar-393",
    "name": "Karlovy lázně",
    "subtype": "kulturní dům",
    "typ_uap": "05_03",
    "cooling": "ac",
    "tier": "B",
    "address": "Smetanovo nábřeží 198/1",
    "web": "www.karlovylazne.cz",
    "bezbar": false,
    "source": "IPR Praha – ÚAP"
   }
  },
  {
   "type": "Feature",
   "geometry": {
    "type": "Point",
    "coordinates": [
     14.491856,
     50.078472
    ]
   },
   "properties": {
    "id": "ipr-kultzar-287",
    "name": "Divadelní ateliér",
    "subtype": "divadlo",
    "typ_uap": "05_01",
    "cooling": "ac",
    "tier": "A",
    "address": "Pod Strašnickou vinicí 623/23",
    "web": "divadelniatelier.cz/?page_id=816",
    "bezbar": true,
    "source": "IPR Praha – ÚAP"
   }
  },
  {
   "type": "Feature",
   "geometry": {
    "type": "Point",
    "coordinates": [
     14.429582,
     50.087126
    ]
   },
   "properties": {
    "id": "ipr-kultzar-312",
    "name": "Jan Čejka Gallery",
    "subtype": "galerie",
    "typ_uap": "05_08",
    "cooling": "ac",
    "tier": "A",
    "address": "Hybernská 998/4",
    "web": "jancejkagallery.com",
    "bezbar": true,
    "source": "IPR Praha – ÚAP"
   }
  },
  {
   "type": "Feature",
   "geometry": {
    "type": "Point",
    "coordinates": [
     14.421279,
     50.081345
    ]
   },
   "properties": {
    "id": "ipr-kultzar-167",
    "name": "Divadelní klub Troníček",
    "subtype": "divadlo",
    "typ_uap": "05_01",
    "cooling": "ac",
    "tier": "A",
    "address": "Vladislavova 2053/22",
    "web": "www.divadlotronicek.cz/; www.divadlo-tronicek.estranky.cz/",
    "bezbar": false,
    "source": "IPR Praha – ÚAP"
   }
  },
  {
   "type": "Feature",
   "geometry": {
    "type": "Point",
    "coordinates": [
     14.454012,
     50.084748
    ]
   },
   "properties": {
    "id": "ipr-kultzar-498",
    "name": "Galerie pod radnicí",
    "subtype": "galerie",
    "typ_uap": "05_08",
    "cooling": "ac",
    "tier": "A",
    "address": "Havlíčkovo náměstí 700/9",
    "web": "www.praha3.cz",
    "bezbar": false,
    "source": "IPR Praha – ÚAP"
   }
  },
  {
   "type": "Feature",
   "geometry": {
    "type": "Point",
    "coordinates": [
     14.418513,
     50.082027
    ]
   },
   "properties": {
    "id": "ipr-kultzar-277",
    "name": "Rock Café",
    "subtype": "kulturní dům",
    "typ_uap": "05_03",
    "cooling": "ac",
    "tier": "B",
    "address": "Národní 116/20",
    "web": "www.rockcafe.cz",
    "bezbar": false,
    "source": "IPR Praha – ÚAP"
   }
  },
  {
   "type": "Feature",
   "geometry": {
    "type": "Point",
    "coordinates": [
     14.426407,
     50.080891
    ]
   },
   "properties": {
    "id": "ipr-kultzar-290",
    "name": "Palác Lucerna",
    "subtype": "multifunkční sál",
    "typ_uap": "05_05",
    "cooling": "ac",
    "tier": "A",
    "address": "Štěpánská 704/61",
    "web": "www.lucerna.cz",
    "bezbar": false,
    "source": "IPR Praha – ÚAP"
   }
  },
  {
   "type": "Feature",
   "geometry": {
    "type": "Point",
    "coordinates": [
     14.42224,
     50.085092
    ]
   },
   "properties": {
    "id": "ipr-kultzar-494",
    "name": "Galerie České spořitelny",
    "subtype": "muzeum",
    "typ_uap": "05_07",
    "cooling": "ac",
    "tier": "A",
    "address": "Rytířská 536/29",
    "web": "www.galerieceskesporitelny.cz",
    "bezbar": false,
    "source": "IPR Praha – ÚAP"
   }
  },
  {
   "type": "Feature",
   "geometry": {
    "type": "Point",
    "coordinates": [
     14.380051,
     50.085684
    ]
   },
   "properties": {
    "id": "ipr-kultzar-469",
    "name": "Multifunkční centrum Dlabačov,",
    "subtype": "multifunkční sál",
    "typ_uap": "05_05",
    "cooling": "ac",
    "tier": "A",
    "address": "Bělohorská 125/24",
    "web": "mcdlabacov.cz/",
    "bezbar": false,
    "source": "IPR Praha – ÚAP"
   }
  },
  {
   "type": "Feature",
   "geometry": {
    "type": "Point",
    "coordinates": [
     14.670302,
     50.096855
    ]
   },
   "properties": {
    "id": "ipr-kultzar-683",
    "name": "Kulturní centrum Beseda",
    "subtype": "divadlo",
    "typ_uap": "05_01",
    "cooling": "ac",
    "tier": "A",
    "address": "Slavětínská 120/52",
    "web": "www.kcbeseda.eu",
    "bezbar": false,
    "source": "IPR Praha – ÚAP"
   }
  },
  {
   "type": "Feature",
   "geometry": {
    "type": "Point",
    "coordinates": [
     14.436331,
     50.091135
    ]
   },
   "properties": {
    "id": "ipr-kultzar-300",
    "name": "Muzeum družstevnictví",
    "subtype": "muzeum",
    "typ_uap": "05_07",
    "cooling": "ac",
    "tier": "A",
    "address": "Těšnov 1163/5",
    "web": "www.dacr.cz",
    "bezbar": true,
    "source": "IPR Praha – ÚAP"
   }
  },
  {
   "type": "Feature",
   "geometry": {
    "type": "Point",
    "coordinates": [
     14.416669,
     50.080725
    ]
   },
   "properties": {
    "id": "ipr-kultzar-118",
    "name": "Galerie Nová síň",
    "subtype": "galerie",
    "typ_uap": "05_08",
    "cooling": "ac",
    "tier": "A",
    "address": "Voršilská 139/3",
    "web": "www.novasin.org/",
    "bezbar": true,
    "source": "IPR Praha – ÚAP"
   }
  },
  {
   "type": "Feature",
   "geometry": {
    "type": "Point",
    "coordinates": [
     14.423896,
     50.085816
    ]
   },
   "properties": {
    "id": "ipr-kultzar-317",
    "name": "Dorotheum",
    "subtype": "galerie",
    "typ_uap": "05_08",
    "cooling": "ac",
    "tier": "A",
    "address": "Ovocný trh 580/2",
    "web": "www.dorotheum.com",
    "bezbar": false,
    "source": "IPR Praha – ÚAP"
   }
  },
  {
   "type": "Feature",
   "geometry": {
    "type": "Point",
    "coordinates": [
     14.42768,
     50.093499
    ]
   },
   "properties": {
    "id": "ipr-kultzar-284",
    "name": "U Bukanýra",
    "subtype": "kulturní dům",
    "typ_uap": "05_03",
    "cooling": "ac",
    "tier": "B",
    "address": null,
    "web": "www.bukanyr.cz/",
    "bezbar": false,
    "source": "IPR Praha – ÚAP"
   }
  },
  {
   "type": "Feature",
   "geometry": {
    "type": "Point",
    "coordinates": [
     14.450559,
     50.083341
    ]
   },
   "properties": {
    "id": "ipr-kultzar-342",
    "name": "City Surfer Office",
    "subtype": "galerie",
    "typ_uap": "05_08",
    "cooling": "ac",
    "tier": "A",
    "address": "Bořivojova 1577/67",
    "web": "citysurferoffice.tumblr.com/",
    "bezbar": false,
    "source": "IPR Praha – ÚAP"
   }
  },